[{"id":"001029","name":"A.A.U.W. NURSERY SCHOOL","street":"2500 N NORTHERN AVE","city":"WAUKEGAN","zip":"60087","phone":"8476230550","facilityType":"DCC","dayAge":"2Y TO 6Y","nightAge":"0","lang1":"ENGLISH","dayCap":40,"nightCap":0,"status":"License issued (IL)","lat":42.397529,"lon":-87.874824},{"id":"001721","name":"BABY TODDLER NURSERY INF WELF SOC EV","street":"2200 MAIN ST","city":"EVANSTON","zip":"60202","phone":"8474919650","facilityType":"DCC","dayAge":"6W TO 5Y","nightAge":"0","lang1":"ENGLISH","dayCap":75,"nightCap":0,"status":"License issued (IL)","lat":42.033724,"lon":-87.704311},{"id":"002649","name":"BOBBIE NOONAN'S CHILD CARE LLC","street":"4951 W 115TH ST","city":"ALSIP","zip":"60803","phone":"7083852288","facilityType":"DCC","dayAge":"15M TO 6Y","nightAge":"0","lang1":"ENGLISH","dayCap":116,"nightCap":0,"status":"License issued (IL)","lat":41.683503,"lon":-87.743209},{"id":"002652","name":"BOBBIE NOONAN'S CHILD CARE LLC","street":"8717 W LINCOLN HWY","city":"FRANKFORT","zip":"60423","phone":"8154692627","facilityType":"DCC","dayAge":"15M TO 6Y","nightAge":"0","lang1":"ENGLISH","dayCap":132,"nightCap":0,"status":"License issued (IL)","lat":41.506324,"lon":-87.826706},{"id":"003733","name":"CANTON YWCA DAY CARE SERVICES","street":"111 NORTH AVENUE A","city":"CANTON","zip":"61520","phone":"3096470441","facilityType":"DCC","dayAge":"6W TO 12Y","nightAge":"0","lang1":"ENGLISH","dayCap":89,"nightCap":0,"status":"License issued (IL)","lat":40.557282,"lon":-90.036694},{"id":"004179","name":"CHIARAVALLE MONTESSORI SCHOOL","street":"425 DEMPSTER","city":"EVANSTON","zip":"60201","phone":"8478642190","facilityType":"DCC","dayAge":"16M TO 3Y","nightAge":"0","lang1":"ENGLISH","dayCap":61,"nightCap":0,"status":"Pending renewal application (RN)","lat":42.041211,"lon":-87.677939},{"id":"004195","name":"LEARNING BRIDGE EARLY EDUCATION CENTER","street":"1840 ASBURY AVENUE","city":"EVANSTON","zip":"60201","phone":"8478692680","facilityType":"DCC","dayAge":"2Y TO 6Y","nightAge":"0","lang1":"ENGLISH","dayCap":100,"nightCap":0,"status":"Pending renewal application (RN)","lat":42.051128,"lon":-87.690173},{"id":"004260","name":"CHILDRENS LEARNING CENTER MAIN CENTER","street":"905 S 4TH ST","city":"DEKALB","zip":"60115","phone":"8157563506","facilityType":"DCC","dayAge":"6W TO 12Y","nightAge":"0","lang1":"ENGLISH","dayCap":141,"nightCap":0,"status":"License issued (IL)","lat":41.919877,"lon":-88.753544},{"id":"004302","name":"CELEBRATION PRSCHL AT CHRIST LUTH CHURCH","street":"RURAL ROUTE 83 & 55TH STREET","city":"CLARENDON HILLS","zip":"60514","phone":"6303253271","facilityType":"DCC","dayAge":"2Y TO 6Y","nightAge":"0","lang1":"ENGLISH","dayCap":111,"nightCap":0,"status":"Pending renewal application (RN)","lat":41.788538,"lon":-87.95044},{"id":"004318","name":"CEFS HEAD START 05 PROGRAM TAYLORVILLE","street":"1104 W SPRESSER ST STE 4","city":"TAYLORVILLE","zip":"62568","phone":"2172872200","facilityType":"DCC","dayAge":"3Y TO 5Y","nightAge":"0","lang1":"ENGLISH","dayCap":36,"nightCap":0,"status":"License issued (IL)","lat":39.552778,"lon":-89.308381},{"id":"004736","name":"MORRISON COMMUNITY DAY CARE CENTER","street":"100 E LINCOLNWAY","city":"MORRISON","zip":"61270","phone":"8157723707","facilityType":"DCC","dayAge":"6W TO 12Y","nightAge":"0","lang1":"ENGLISH","dayCap":32,"nightCap":0,"status":"License issued (IL)","lat":41.809617,"lon":-89.965745},{"id":"005010","name":"COVENANT NURSERY SCHOOL, INC.","street":"3637 GOLF RD","city":"EVANSTON","zip":"60203","phone":"8476752993","facilityType":"DCC","dayAge":"2Y TO 6Y","nightAge":"0","lang1":"ENGLISH","dayCap":51,"nightCap":0,"status":"Pending renewal application (RN)","lat":42.055286,"lon":-87.719278},{"id":"005703","name":"DEERFIELD PARK DISTRICT NURSERY SCHOOL","street":"836 JEWETT PARK DR","city":"DEERFIELD","zip":"60015","phone":"8479450650","facilityType":"DCC","dayAge":"2Y TO 6Y","nightAge":"0","lang1":"ENGLISH","dayCap":80,"nightCap":0,"status":"License issued (IL)","lat":42.168622,"lon":-87.847235},{"id":"005938","name":"DISTRICT #65 COMM. D.C. KINGSLEY SCHOOL","street":"2300 GREEN BAY ROAD","city":"EVANSTON","zip":"60201","phone":"8478598078","facilityType":"DCC","dayAge":"5Y TO 12Y","nightAge":"0","lang1":"ENGLISH","dayCap":49,"nightCap":0,"status":"License issued (IL)","lat":42.059735,"lon":-87.695048},{"id":"006092","name":"BCMW BREESE HEAD START","street":"25 NORTH MAIN STREET","city":"BREESE","zip":"62230","phone":"6185262419","facilityType":"DCC","dayAge":"3Y TO 5Y","nightAge":"0","lang1":"ENGLISH","dayCap":20,"nightCap":0,"status":"License issued (IL)","lat":38.607308,"lon":-89.527637},{"id":"006666","name":"ERBA CASEY HEAD START","street":"1700 E MAIN ST","city":"CASEY","zip":"62420","phone":"2179233113","facilityType":"DCC","dayAge":"3Y TO 5Y","nightAge":"0","lang1":"ENGLISH","dayCap":15,"nightCap":0,"status":"License issued (IL)","lat":39.298578,"lon":-87.989371},{"id":"006668","name":"ERBA-CHARLESTON HEAD START","street":"697 WINDSOR RD","city":"CHARLESTON","zip":"61920","phone":"2179233113","facilityType":"DCC","dayAge":"3Y TO 6Y","nightAge":"0","lang1":"ENGLISH","dayCap":20,"nightCap":0,"status":"License issued (IL)","lat":39.501438,"lon":-88.193152},{"id":"007038","name":"FIRST CHURCH OF THE NAZARENE PRESCHOOL","street":"12725 BELL ROAD","city":"LEMONT","zip":"60439","phone":"7083490454","facilityType":"DCC","dayAge":"3Y TO 5Y","nightAge":"0","lang1":"ENGLISH","dayCap":100,"nightCap":0,"status":"License issued (IL)","lat":41.65749,"lon":-87.931708},{"id":"007062","name":"FIRST UNITED METHODIST DAY CARE CENTER","street":"210 WEST CHURCH","city":"CHAMPAIGN","zip":"61820","phone":"2173561247","facilityType":"DCC","dayAge":"6W TO 12Y","nightAge":"0","lang1":"ENGLISH","dayCap":111,"nightCap":0,"status":"License issued (IL)","lat":40.118324,"lon":-88.245406},{"id":"007064","name":"THE TOTAL CHILD CENTER","street":"516 CHURCH ST","city":"EVANSTON","zip":"60201","phone":"8478647100","facilityType":"DCC","dayAge":"2Y TO 6Y","nightAge":"0","lang1":"ENGLISH","dayCap":94,"nightCap":0,"status":"License issued (IL)","lat":42.047256,"lon":-87.67731},{"id":"007493","name":"FRIENDSHIP CORNER","street":"935/777 E. DEVON","city":"BARTLETT","zip":"60103","phone":"6302892211","facilityType":"DCC","dayAge":"6W TO 12Y","nightAge":"0","lang1":"ENGLISH","dayCap":68,"nightCap":0,"status":"Pending renewal application (RN)","lat":41.987433,"lon":-88.167902},{"id":"073856","name":"RIVERBEND HEAD START/FAMILY SERVICES-GCN","street":"2413 CORPORATE CENTER DR","city":"GRANITE CITY","zip":"62040","phone":"6187971547","facilityType":"DCC","dayAge":"3Y TO 6Y","nightAge":"0","lang1":"ENGLISH","dayCap":80,"nightCap":0,"status":"License issued (IL)","lat":38.729773,"lon":-90.103688},{"id":"078468","name":"KINDERCARE LEARNING CTR 300978","street":"207 E HILLCREST DR","city":"DEKALB","zip":"60115","phone":"8157581541","facilityType":"DCC","dayAge":"6W TO 13Y","nightAge":"0","lang1":"ENGLISH","dayCap":123,"nightCap":0,"status":"License issued (IL)","lat":41.941101,"lon":-88.747718},{"id":"080755","name":"CREATIVE LEARNING MONTESSORI SCHOOL","street":"1410 S BARRINGTON ROAD","city":"BARRINGTON","zip":"60010","phone":"8473822812","facilityType":"DCC","dayAge":"6W TO 12Y","nightAge":"0","lang1":"ENGLISH","dayCap":91,"nightCap":0,"status":"License issued (IL)","lat":42.133032,"lon":-88.136258},{"id":"081778","name":"LEARNING LOFT, INC.","street":"655 N 1ST BANK DR","city":"PALATINE","zip":"60067","phone":"8473595437","facilityType":"DCC","dayAge":"6W TO 12Y","nightAge":"0","lang1":"ENGLISH","dayCap":102,"nightCap":0,"status":"License issued (IL)","lat":42.121001,"lon":-88.034663},{"id":"081785","name":"KINDERCARE LEARNING CENTER #301002","street":"2605 BLACK RD","city":"JOLIET","zip":"60435","phone":"8157292110","facilityType":"DCC","dayAge":"6W TO 12Y","nightAge":"0","lang1":"ENGLISH","dayCap":120,"nightCap":0,"status":"License issued (IL)","lat":41.536721,"lon":-88.146949},{"id":"082168","name":"BERNARD WEINGER JCC AT AM SHALOM","street":"840 VERNON AVE","city":"GLENCOE","zip":"60022","phone":"8478350008","facilityType":"DCC","dayAge":"2Y TO 6Y","nightAge":"0","lang1":"ENGLISH","dayCap":104,"nightCap":0,"status":"Pending renewal application (RN)","lat":42.138291,"lon":-87.76328},{"id":"084778","name":"KINDERCARE LEARNING CTR 301068","street":"410 DEVONSHIRE DR","city":"CHAMPAIGN","zip":"61820","phone":"2173569000","facilityType":"DCC","dayAge":"6W TO 12Y","nightAge":"0","lang1":"ENGLISH","dayCap":127,"nightCap":0,"status":"License issued (IL)","lat":40.089821,"lon":-88.250004},{"id":"084820","name":"PALOS PARK EPISCOPAL DAY CARE CENTER","street":"12219 S 86TH AVE","city":"PALOS PARK","zip":"60464","phone":"7083614066","facilityType":"DCC","dayAge":"15M TO 11Y","nightAge":"0","lang1":"ENGLISH","dayCap":77,"nightCap":0,"status":"License issued (IL)","lat":41.668209,"lon":-87.830379},{"id":"085781","name":"KINDERCARE LEARNING CTR 301095","street":"17025 S PARK AVE","city":"SOUTH HOLLAND","zip":"60473","phone":"7083312511","facilityType":"DCC","dayAge":"6W TO 12Y","nightAge":"0","lang1":"ENGLISH","dayCap":118,"nightCap":0,"status":"License issued (IL)","lat":41.58583,"lon":-87.607245},{"id":"090041","name":"CHIN.AMER.SER.LGE. CHILD DEV/SCH AGE CTR","street":"2141 S TAN CT","city":"CHICAGO","zip":"60616","phone":"3127910454","facilityType":"DCC","dayAge":"2Y TO 12Y","nightAge":"0","lang1":"ENGLISH","dayCap":145,"nightCap":0,"status":"License issued (IL)","lat":41.855064,"lon":-87.634504},{"id":"094771","name":"SIUE EARLY CHILDHOOD CENTER","street":"795 NW UNIVERSITY DR","city":"EDWARDSVILLE","zip":"62025","phone":"6186502556","facilityType":"DCC","dayAge":"2Y TO 12Y","nightAge":"0","lang1":"ENGLISH","dayCap":92,"nightCap":0,"status":"License issued (IL)","lat":38.807369,"lon":-89.961959},{"id":"095654","name":"BETHEL LUTHERAN CHURCH PRESCHOOL","street":"5110 GRAND AVE","city":"GURNEE","zip":"60031","phone":"8472449672","facilityType":"DCC","dayAge":"2Y TO 6Y","nightAge":"0","lang1":"ENGLISH","dayCap":40,"nightCap":0,"status":"License issued (IL)","lat":42.37562,"lon":-87.929396},{"id":"096165","name":"PEPPERMINT STICK PRESCHOOL","street":"1124 N CEDAR LAKE RD","city":"ROUND LK BCH","zip":"60073","phone":"8475461160","facilityType":"DCC","dayAge":"15M TO 12Y","nightAge":"0","lang1":"ENGLISH","dayCap":72,"nightCap":0,"status":"License issued (IL)","lat":42.369333,"lon":-88.089862},{"id":"096481","name":"HAMILTON COUNTY PRE-SCHOOL CENTER","street":"210 S PEARL ST","city":"MC LEANSBORO","zip":"62859","phone":"6186432328","facilityType":"DCC","dayAge":"15M TO 13Y","nightAge":"0","lang1":"ENGLISH","dayCap":131,"nightCap":0,"status":"License issued (IL)","lat":38.093358,"lon":-88.538164},{"id":"097569","name":"RIVERWOODS MONTESSORI SCHOOL","street":"3140 RIVERWOODS ROAD","city":"RIVERWOODS","zip":"60015","phone":"8479457582","facilityType":"DCC","dayAge":"6W TO 6Y","nightAge":"0","lang1":"ENGLISH","dayCap":71,"nightCap":0,"status":"License issued (IL)","lat":42.172335,"lon":-87.857949},{"id":"099791","name":"CHILDTIME CHILDRENS CENTER","street":"364 GENEVA RD","city":"GLEN ELLYN","zip":"60137","phone":"6304698844","facilityType":"DCC","dayAge":"6W TO 12Y","nightAge":"0","lang1":"ENGLISH","dayCap":110,"nightCap":0,"status":"Pending renewal application (RN)","lat":41.889388,"lon":-88.074405},{"id":"100677","name":"NORTHWESTERN UNIVERSITY SETTLEMENT ASSN.","street":"1400 W AUGUSTA BLVD","city":"CHICAGO","zip":"60622","phone":"7732787471","facilityType":"DCC","dayAge":"2Y TO 12Y","nightAge":"0","lang1":"ENGLISH","dayCap":96,"nightCap":0,"status":"Pending renewal application (RN)","lat":41.899836,"lon":-87.663183},{"id":"100678","name":"HIGH HOPES LEARNING CENTER","street":"6224 111TH ST","city":"CHICAGO RIDGE","zip":"60415","phone":"7084240152","facilityType":"DCC","dayAge":"6W TO 12Y","nightAge":"0","lang1":"ENGLISH","dayCap":98,"nightCap":0,"status":"License issued (IL)","lat":41.690489,"lon":-87.774869},{"id":"108821","name":"LA PETITE ACADEMY SCHAUMBURG","street":"651 WINDSOR DR","city":"SCHAUMBURG","zip":"60193","phone":"8479856776","facilityType":"DCC","dayAge":"6W TO 6Y","nightAge":"0","lang1":"ENGLISH","dayCap":99,"nightCap":0,"status":"License issued (IL)","lat":42.015523,"lon":-88.079078},{"id":"110016","name":"HIGHLAND PARK MONTESSORI SCHOOL, INC.","street":"1301 CLAVEY RD","city":"HIGHLAND PARK","zip":"60035","phone":"8474333383","facilityType":"DCC","dayAge":"2Y TO 3Y","nightAge":"0","lang1":"ENGLISH","dayCap":40,"nightCap":0,"status":"License issued (IL)","lat":42.159857,"lon":-87.800003},{"id":"110436","name":"KINDERCARE LEARNING CTRS 301167","street":"800 S ARLINGTON HEIGHTS RD","city":"ELK GROVE VLG","zip":"60007","phone":"8479567123","facilityType":"DCC","dayAge":"6W TO 12Y","nightAge":"0","lang1":"ENGLISH","dayCap":105,"nightCap":0,"status":"Pending renewal application (RN)","lat":42.006353,"lon":-88.004098},{"id":"112729","name":"LA PETITE ACADEMY INC OFALLON","street":"940 TALON DR","city":"O FALLON","zip":"62269","phone":"6186245998","facilityType":"DCC","dayAge":"6W TO 12Y","nightAge":"0","lang1":"ENGLISH","dayCap":94,"nightCap":0,"status":"License issued (IL)","lat":38.592581,"lon":-89.932916},{"id":"282087","name":"IMMANUEL LUTHERAN CHURCH PRE-SCHOOL","street":"5211 CARPENTER AT GROVE","city":"DOWNERS GROVE","zip":"60515","phone":"6303246797","facilityType":"DCC","dayAge":"2Y TO 6Y","nightAge":"0","lang1":"ENGLISH","dayCap":53,"nightCap":0,"status":"License issued (IL)","lat":41.792266,"lon":-88.014185},{"id":"290177","name":"JUST US KIDS CHILD CARE CENTER, INC.","street":"839 DARMSTADT STREET","city":"ST. LIBORY","zip":"62282","phone":"6187684275","facilityType":"DCC","dayAge":"6W TO 12Y","nightAge":"0","lang1":"ENGLISH","dayCap":69,"nightCap":0,"status":"License issued (IL)","lat":38.360477,"lon":-89.711713},{"id":"293481","name":"STREATOR HEAD START","street":"701 S STERLING ST","city":"STREATOR","zip":"61364","phone":"8156257830","facilityType":"DCC","dayAge":"6W TO 5Y","nightAge":"0","lang1":"ENGLISH","dayCap":84,"nightCap":0,"status":"License issued (IL)","lat":41.112135,"lon":-88.829966},{"id":"294741","name":"GARFIELD YMCA","street":"7 NORTH HOMAN AVE.","city":"CHICAGO","zip":"60624","phone":"7732653900","facilityType":"DCC","dayAge":"2Y TO 6Y","nightAge":"0","lang1":"ENGLISH","dayCap":56,"nightCap":0,"status":"License issued (IL)","lat":41.881495,"lon":-87.710947},{"id":"295391","name":"HAPPY DAYS PRESCHOOL/GRACE UNITED","street":"250 N MILL ST","city":"NASHVILLE","zip":"62263","phone":"6183278407","facilityType":"DCC","dayAge":"3Y TO 5Y","nightAge":"0","lang1":"ENGLISH","dayCap":52,"nightCap":0,"status":"License issued (IL)","lat":38.344909,"lon":-89.380581},{"id":"301459","name":"BODE PRESCHOOL & CHILD CARE CNTR","street":"946 BODE RD","city":"SCHAUMBURG","zip":"60194","phone":"8478851256","facilityType":"DCC","dayAge":"6W TO 12Y","nightAge":"0","lang1":"ENGLISH","dayCap":181,"nightCap":0,"status":"License issued (IL)","lat":42.041215,"lon":-88.101138},{"id":"304212","name":"CHRIST THE ROCK LUTHERAN PRE-SCHOOL","street":"8330 NEWBURG ROAD","city":"ROCKFORD","zip":"61108","phone":"8153325551","facilityType":"DCC","dayAge":"3Y TO 6Y","nightAge":"0","lang1":"ENGLISH","dayCap":20,"nightCap":0,"status":"License issued (IL)","lat":42.253823,"lon":-88.954001},{"id":"306958","name":"NEAR THE PIER DEVELOPMENT CENTER","street":"540 N LAKE SHORE DRIVE","city":"CHICAGO","zip":"60611","phone":"3125272223","facilityType":"DCC","dayAge":"6W TO 12Y","nightAge":"0","lang1":"ENGLISH","dayCap":88,"nightCap":0,"status":"License issued (IL)","lat":41.891446,"lon":-87.6143},{"id":"307012","name":"A + DAY SCHOOL, TWO INC.","street":"865 STERLING AVENUE","city":"PALATINE","zip":"60067","phone":"8473592450","facilityType":"DCC","dayAge":"6W TO 7Y","nightAge":"0","lang1":"ENGLISH","dayCap":62,"nightCap":0,"status":"License issued (IL)","lat":42.126182,"lon":-88.071208},{"id":"307685","name":"LOMBARD PARK DISTRICT-KIDDIE CAMPUS P.S.","street":"820 S FINLEY RD","city":"LOMBARD","zip":"60148","phone":"6306207322","facilityType":"DCC","dayAge":"2Y TO 6Y","nightAge":"0","lang1":"ENGLISH","dayCap":60,"nightCap":0,"status":"License issued (IL)","lat":41.869801,"lon":-88.02869},{"id":"307953","name":"OLD STONE PRESCHOOL","street":"550 SOUTH BLACKHAWK BOULEVARD","city":"ROCKTON","zip":"61072","phone":"8156247872","facilityType":"DCC","dayAge":"3Y TO 6Y","nightAge":"0","lang1":"ENGLISH","dayCap":18,"nightCap":0,"status":"License issued (IL)","lat":42.446087,"lon":-89.074752},{"id":"308855","name":"SHEPHERDS FLOCK","street":"800 WEST OAKTON STREET","city":"ARLINGTON HEIGHTS","zip":"60004","phone":"8473687391","facilityType":"DCC","dayAge":"6W TO 6Y","nightAge":"0","lang1":"ENGLISH","dayCap":71,"nightCap":0,"status":"License issued (IL)","lat":42.095641,"lon":-87.992698},{"id":"311400","name":"GARDENS OF SONG, INC.","street":"22700 VETERANS RD","city":"MORTON","zip":"61550","phone":"3092668364","facilityType":"DCC","dayAge":"6W TO 6Y","nightAge":"0","lang1":"ENGLISH","dayCap":36,"nightCap":0,"status":"Refuse to Renew (RR)","lat":40.644558,"lon":-89.489096},{"id":"312128","name":"KIDDIE GARDEN","street":"9130 WEST GOLF","city":"NILES","zip":"60714","phone":"8476998585","facilityType":"DCC","dayAge":"6W TO 7Y","nightAge":"0","lang1":"ENGLISH","dayCap":87,"nightCap":0,"status":"Pending renewal application (RN)","lat":42.054193,"lon":-87.853917},{"id":"315739","name":"SPRINGFIELD URBAN LEAGUE HEAD START","street":"1108 E COOK ST","city":"SPRINGFIELD","zip":"62703","phone":"2175280893","facilityType":"DCC","dayAge":"6W TO 3Y","nightAge":"0","lang1":"ENGLISH","dayCap":56,"nightCap":0,"status":"License issued (IL)","lat":39.794737,"lon":-89.640797},{"id":"316621","name":"ABC ACADEMY","street":"2714 W PRATT BLVD","city":"CHICAGO","zip":"60645","phone":"7733381033","facilityType":"DCC","dayAge":"15M TO 12Y","nightAge":"0","lang1":"ENGLISH","dayCap":58,"nightCap":0,"status":"Pending renewal application (RN)","lat":42.00494,"lon":-87.697959},{"id":"317364","name":"ST JOHN LUTHERAN CHILD CARE","street":"6614 SMITHVILLE RD","city":"BARTONVILLE","zip":"61607","phone":"3096970135","facilityType":"DCC","dayAge":"6W TO 12Y","nightAge":"0","lang1":"ENGLISH","dayCap":71,"nightCap":0,"status":"License issued (IL)","lat":40.656778,"lon":-89.70271},{"id":"319118","name":"STEPPING STONES CHILD'S CENTER ROSCOE","street":"11364 2ND ST","city":"ROSCOE","zip":"61073","phone":"8156237282","facilityType":"DCC","dayAge":"6W TO 12Y","nightAge":"0","lang1":"ENGLISH","dayCap":110,"nightCap":0,"status":"License issued (IL)","lat":42.425809,"lon":-89.006385},{"id":"326478","name":"THE YOUNG SCHOLARS CHILD CARE CENTER","street":"501 KORA LN","city":"ISLAND LAKE","zip":"60042","phone":"8474870300","facilityType":"DCC","dayAge":"6W TO 12Y","nightAge":"0","lang1":"ENGLISH","dayCap":105,"nightCap":0,"status":"License issued (IL)","lat":42.277855,"lon":-88.189039},{"id":"326507","name":"LASTING IMPRESSIONS VISIONS INC","street":"735 MAIN N.W.","city":"BOURBONNAIS","zip":"60914","phone":"8159373553","facilityType":"DCC","dayAge":"6W TO 12Y","nightAge":"0","lang1":"ENGLISH","dayCap":101,"nightCap":0,"status":"License issued (IL)","lat":41.160779,"lon":-87.889357},{"id":"328523","name":"MDT CHILD CARE CENTER","street":"2316 CYNTHIA ST","city":"CAHOKIA","zip":"62206","phone":"6184689874","facilityType":"DCC","dayAge":"6W TO 12Y","nightAge":"0","lang1":"ENGLISH","dayCap":40,"nightCap":0,"status":"License issued (IL)","lat":38.551835,"lon":-90.139831},{"id":"444646","name":"HAMILTON'S LEARNING CENTER","street":"3232 STATE ST","city":"E ST LOUIS","zip":"62205","phone":"6182743232","facilityType":"DCC","dayAge":"6W TO 12Y","nightAge":"6W TO 12Y","lang1":"ENGLISH","dayCap":86,"nightCap":86,"status":"License issued (IL)","lat":38.612562,"lon":-90.120649},{"id":"445761","name":"TRINITY DAY CARE","street":"215 N 1ST ST","city":"ROCKFORD","zip":"61107","phone":"8159865437","facilityType":"DCC","dayAge":"6W TO 12Y","nightAge":"0","lang1":"ENGLISH","dayCap":318,"nightCap":0,"status":"License issued (IL)","lat":42.26933,"lon":-89.087784},{"id":"446013","name":"GRANDMA JONES DAY CARE III","street":"1810 SIBLEY BLVD","city":"CALUMET CITY","zip":"60409","phone":"7087309467","facilityType":"DCC","dayAge":"6W TO 12Y","nightAge":"0","lang1":"ENGLISH","dayCap":89,"nightCap":0,"status":"License issued (IL)","lat":41.622817,"lon":-87.569076},{"id":"446797","name":"I T DAY CARE CENTER","street":"1637 OAKTON PL","city":"DES PLAINES","zip":"60018","phone":"8472998687","facilityType":"DCC","dayAge":"6W TO 12Y","nightAge":"0","lang1":"ENGLISH","dayCap":78,"nightCap":0,"status":"License issued (IL)","lat":42.02315,"lon":-87.897849},{"id":"447401","name":"WHIZ KIDS NURSERY CENTER, INC","street":"514 522 W 103RD STREET","city":"CHICAGO","zip":"60628","phone":"7739886566","facilityType":"DCC","dayAge":"6W TO 12Y","nightAge":"0","lang1":"ENGLISH","dayCap":65,"nightCap":0,"status":"License issued (IL)","lat":41.707058,"lon":-87.63646},{"id":"447910","name":"MARY CRANE MORSE SITE","street":"1545 W MORSE AVE","city":"CHICAGO","zip":"60626","phone":"7732621390","facilityType":"DCC","dayAge":"15M TO 6Y","nightAge":"0","lang1":"ENGLISH","dayCap":68,"nightCap":0,"status":"License issued (IL)","lat":42.007809,"lon":-87.66847},{"id":"447985","name":"CUDDLE CARE ACADEMY","street":"4800 S LAKE PARK","city":"CHICAGO","zip":"60615","phone":"7732851114","facilityType":"DCC","dayAge":"15M TO 6Y","nightAge":"0","lang1":"ENGLISH","dayCap":45,"nightCap":0,"status":"License issued (IL)","lat":41.80801,"lon":-87.590683},{"id":"448925","name":"JUNIOR KID'S CONNECTION","street":"810 PRESTON LN","city":"OSWEGO","zip":"60543","phone":"6305544060","facilityType":"DCC","dayAge":"2Y TO 6Y","nightAge":"0","lang1":"ENGLISH","dayCap":40,"nightCap":0,"status":"License issued (IL)","lat":41.679794,"lon":-88.327375},{"id":"449198","name":"KINDERCARE LEARNING CENTER 000607","street":"1653 N BALDWIN RD","city":"PALATINE","zip":"60074","phone":"8473592270","facilityType":"DCC","dayAge":"6W TO 12Y","nightAge":"0","lang1":"ENGLISH","dayCap":138,"nightCap":0,"status":"License issued (IL)","lat":42.141034,"lon":-88.014053},{"id":"449217","name":"KINDERCARE LEARNING CENTER 000136","street":"838 N QUENTIN RD","city":"PALATINE","zip":"60067","phone":"8473592229","facilityType":"DCC","dayAge":"6W TO 12Y","nightAge":"0","lang1":"ENGLISH","dayCap":101,"nightCap":0,"status":"License issued (IL)","lat":42.12472,"lon":-88.06319},{"id":"449898","name":"KNOX COUNTY YMCA EARLY LEARNING CENTER","street":"192 E SOUTH ST","city":"GALESBURG","zip":"61401","phone":"3093424315","facilityType":"DCC","dayAge":"6W TO 5Y","nightAge":"0","lang1":"ENGLISH","dayCap":44,"nightCap":0,"status":"Surrendered under Investigation (SI)","lat":40.943772,"lon":-90.368979},{"id":"450052","name":"KENSINGTON SCHOOL OF ST CHARLES","street":"1900 CUMBERLAND PARKWAY","city":"ST. CHARLES","zip":"60174","phone":"6305135351","facilityType":"DCC","dayAge":"6W TO 12Y","nightAge":"0","lang1":"ENGLISH","dayCap":188,"nightCap":0,"status":"License issued (IL)","lat":41.901028,"lon":-88.277764},{"id":"450619","name":"KINDER CARE LEARNING CENTERS 000235","street":"2485 SOUTH ST","city":"ELGIN","zip":"60124","phone":"8478884288","facilityType":"DCC","dayAge":"6W TO 12Y","nightAge":"0","lang1":"ENGLISH","dayCap":132,"nightCap":0,"status":"License issued (IL)","lat":42.025138,"lon":-88.337141},{"id":"451098","name":"KINDERCARE LEARNING CENTER 000026","street":"950 N LOMBARD RD","city":"ADDISON","zip":"60101","phone":"6306296145","facilityType":"DCC","dayAge":"6W TO 12Y","nightAge":"0","lang1":"ENGLISH","dayCap":144,"nightCap":0,"status":"License issued (IL)","lat":41.944985,"lon":-88.022192},{"id":"451099","name":"KINDERCARE LEARNING CENTER 000171","street":"140 N GARY AVE","city":"CAROL STREAM","zip":"60188","phone":"6306651441","facilityType":"DCC","dayAge":"6W TO 12Y","nightAge":"0","lang1":"ENGLISH","dayCap":120,"nightCap":0,"status":"Pending renewal application (RN)","lat":41.905479,"lon":-88.120633},{"id":"451121","name":"KINDERCARE LEARNING CENTER #000315","street":"2264 BLOOMINGDALE RD","city":"GLENDALE HTS","zip":"60139","phone":"6309808222","facilityType":"DCC","dayAge":"6W TO 12Y","nightAge":"0","lang1":"ENGLISH","dayCap":141,"nightCap":0,"status":"License issued (IL)","lat":41.939236,"lon":-88.080383},{"id":"451122","name":"KINDERCARE LEARNING CENTER #000011","street":"355 GLEN ELLYN RD","city":"BLOOMINGDALE","zip":"60108","phone":"6303511302","facilityType":"DCC","dayAge":"6W TO 12Y","nightAge":"0","lang1":"ENGLISH","dayCap":107,"nightCap":0,"status":"Pending renewal application (RN)","lat":41.946873,"lon":-88.079565},{"id":"451370","name":"SUNNY DAYS CHILD CARE & LEARNING CENTER","street":"1900 W MAIN ST","city":"VANDALIA","zip":"62471","phone":"6182839733","facilityType":"DCC","dayAge":"6W TO 12Y","nightAge":"0","lang1":"ENGLISH","dayCap":39,"nightCap":0,"status":"License issued (IL)","lat":38.961999,"lon":-89.116814},{"id":"451645","name":"WHEN I GROW UP INCORPORATED","street":"2030 GREENBAY ROAD","city":"NORTH CHICAGO","zip":"60064","phone":"8474733500","facilityType":"DCC","dayAge":"15M TO 12Y","nightAge":"0","lang1":"ENGLISH","dayCap":57,"nightCap":0,"status":"Refuse to Renew (RR)","lat":42.321949,"lon":-87.867237},{"id":"451796","name":"APPLETREE ACADEMY, INC.","street":"1601 W ALTA RD","city":"PEORIA","zip":"61615","phone":"3092435700","facilityType":"DCC","dayAge":"6W TO 6Y","nightAge":"0","lang1":"ENGLISH","dayCap":143,"nightCap":0,"status":"License issued (IL)","lat":40.813124,"lon":-89.615108},{"id":"452587","name":"YOUNG ACHIEVERS ACADEMY","street":"518-520 E. 79TH ST.","city":"CHICAGO","zip":"60619","phone":"7732639688","facilityType":"DCC","dayAge":"15M TO 6Y","nightAge":"0","lang1":"ENGLISH","dayCap":35,"nightCap":0,"status":"License issued (IL)","lat":41.751229,"lon":-87.611685},{"id":"452964","name":"HAPPY BEAR CHILD DEVELOPMENT CENTER","street":"6718 OGDEN AVE","city":"BERWYN","zip":"60402","phone":"7084847170","facilityType":"DCC","dayAge":"6W TO 6Y","nightAge":"0","lang1":"ENGLISH","dayCap":41,"nightCap":0,"status":"License issued (IL)","lat":41.827734,"lon":-87.791041},{"id":"453417","name":"MEMITO'S ACADEMY FOR CHILDREN","street":"2445 N LARAMIE AVE","city":"CHICAGO","zip":"60639","phone":"7736220296","facilityType":"DCC","dayAge":"6W TO 6Y","nightAge":"0","lang1":"ENGLISH","dayCap":103,"nightCap":0,"status":"Pending renewal application (RN)","lat":41.925375,"lon":-87.756115},{"id":"453528","name":"LUTHERAN CARE CTR KIDS ENRICHMENT CTR","street":"610 W CUMBERLAND RD","city":"ALTAMONT","zip":"62411","phone":"6184836136","facilityType":"DCC","dayAge":"6W TO 12Y","nightAge":"0","lang1":"ENGLISH","dayCap":50,"nightCap":0,"status":"License issued (IL)","lat":39.053531,"lon":-88.753127},{"id":"454091","name":"E.L.I.T.E. LEARNING CENTER","street":"701 N MAIN ST","city":"ST JOSEPH","zip":"61873","phone":"2174697115","facilityType":"DCC","dayAge":"6W TO 12Y","nightAge":"0","lang1":"ENGLISH","dayCap":102,"nightCap":0,"status":"License issued (IL)","lat":40.117237,"lon":-88.041865},{"id":"456075","name":"SCHICK'S CROSSING PRESCHOOL","street":"300 SCHICK RD","city":"BARTLETT","zip":"60103","phone":"6304831030","facilityType":"DCC","dayAge":"2Y TO 5Y","nightAge":"0","lang1":"ENGLISH","dayCap":32,"nightCap":0,"status":"Pending renewal application (RN)","lat":41.95166,"lon":-88.169184},{"id":"457351","name":"ONCE UPON A TIME CHILD CARE","street":"1778 W STATE ST STE C","city":"SYCAMORE","zip":"60178","phone":"8158992676","facilityType":"DCC","dayAge":"6W TO 7Y","nightAge":"0","lang1":"ENGLISH","dayCap":73,"nightCap":0,"status":"License issued (IL)","lat":41.995376,"lon":-88.717312},{"id":"458752","name":"CENTERS FOR NEW HORIZONS INC EFFIE ELLIS","street":"4301 S COTTAGE GROVE AVE","city":"CHICAGO","zip":"60653","phone":"7733574343","facilityType":"DCC","dayAge":"6W TO 6Y","nightAge":"0","lang1":"ENGLISH","dayCap":129,"nightCap":0,"status":"Pending renewal application (RN)","lat":41.816762,"lon":-87.606632},{"id":"459415","name":"THE GODDARD SCHOOL","street":"1160 FORTUNE BLVD","city":"SHILOH","zip":"62269","phone":"6186242750","facilityType":"DCC","dayAge":"6W TO 12Y","nightAge":"0","lang1":"ENGLISH","dayCap":202,"nightCap":0,"status":"License issued (IL)","lat":38.572925,"lon":-89.921144},{"id":"459649","name":"CHANNING'S CHILD CARE ACADEMY","street":"5701 W DIVISION ST","city":"CHICAGO","zip":"60651","phone":"7733797627","facilityType":"DCC","dayAge":"6W TO 12Y","nightAge":"0","lang1":"ENGLISH","dayCap":62,"nightCap":0,"status":"Pending renewal application (RN)","lat":41.902051,"lon":-87.768157},{"id":"459977","name":"DEEDEE'S LRNG ACAD, INC AFTERSCHOOL PROG","street":"905 BLUFFVIEW ELEMENTARY LN","city":"DUPO","zip":"62239","phone":"6182864949","facilityType":"DCC","dayAge":"5Y TO 12Y","nightAge":"0","lang1":"ENGLISH","dayCap":60,"nightCap":0,"status":"License issued (IL)","lat":38.515919,"lon":-90.20465},{"id":"461635","name":"MUSTARD SEED CHRISTIAN DAYCARE","street":"351 N CHICAGO ST","city":"ROSSVILLE","zip":"60963","phone":"2177486370","facilityType":"DCC","dayAge":"6W TO 12Y","nightAge":"0","lang1":"ENGLISH","dayCap":103,"nightCap":0,"status":"Pending renewal application (RN)","lat":40.380652,"lon":-87.669559},{"id":"462390","name":"LOS PEQUENOS ANGELITOS","street":"3711 W 55TH ST","city":"CHICAGO","zip":"60632","phone":"7737355827","facilityType":"DCC","dayAge":"6W TO 12Y","nightAge":"0","lang1":"ENGLISH","dayCap":66,"nightCap":0,"status":"License issued (IL)","lat":41.793248,"lon":-87.716267},{"id":"462531","name":"THE GODDARD SCHOOL IN ROUND LAKE","street":"1155 S AMARIAS DR","city":"ROUND LAKE","zip":"60073","phone":"8472011880","facilityType":"DCC","dayAge":"6W TO 12Y","nightAge":"6W TO 12Y","lang1":"ENGLISH","dayCap":140,"nightCap":140,"status":"License issued (IL)","lat":42.32766,"lon":-88.088172},{"id":"464348","name":"WEST AUSTIN DEVELOPMENT CENTER","street":"4920 W MADISON ST","city":"CHICAGO","zip":"60644","phone":"7732612223","facilityType":"DCC","dayAge":"6W TO 12Y","nightAge":"0","lang1":"ENGLISH","dayCap":201,"nightCap":0,"status":"License issued (IL)","lat":41.880514,"lon":-87.748113},{"id":"464606","name":"NEW SALEM CHILDREN'S CENTER II, INC.","street":"14277 STATE HIGHWAY 97","city":"PETERSBURG","zip":"62675","phone":"2176327587","facilityType":"DCC","dayAge":"6W TO 10Y","nightAge":"0","lang1":"ENGLISH","dayCap":97,"nightCap":0,"status":"License issued (IL)","lat":39.963878,"lon":-89.845766},{"id":"467684","name":"SHINING STAR CHILD DEV INST OF THE ARTS","street":"854 E 79TH ST","city":"CHICAGO","zip":"60619","phone":"7734887827","facilityType":"DCC","dayAge":"6W TO 6Y","nightAge":"0","lang1":"ENGLISH","dayCap":76,"nightCap":0,"status":"License issued (IL)","lat":41.747008,"lon":-87.60369},{"id":"467889","name":"DALIA'S BUSY BEE ACADEMY INC","street":"10658 S GREEN BAY AVE","city":"CHICAGO","zip":"60617","phone":"7732214411","facilityType":"DCC","dayAge":"6W TO 12Y","nightAge":"0","lang1":"ENGLISH","dayCap":64,"nightCap":0,"status":"License issued (IL)","lat":41.70151,"lon":-87.54142},{"id":"468423","name":"READY, SET, GROW, INCORPORATED","street":"996 N FRONTAGE ROAD","city":"DARIEN","zip":"60561","phone":"6305151002","facilityType":"DCC","dayAge":"6W TO 6Y","nightAge":"0","lang1":"ENGLISH","dayCap":97,"nightCap":0,"status":"Pending renewal application (RN)","lat":41.734283,"lon":-87.969312},{"id":"469474","name":"WORLD OF DREAMS DAYCARE AND PRESCHOOL IN","street":"14465 DE LA TOUR DRIVE","city":"SOUTH BELOIT","zip":"61080","phone":"8156248900","facilityType":"DCC","dayAge":"6W TO 5Y","nightAge":"0","lang1":"ENGLISH","dayCap":83,"nightCap":0,"status":"Pending renewal application (RN)","lat":42.470012,"lon":-89.045723},{"id":"469669","name":"CHRISTOPHER HOUSE LOGAN SQUARE","street":"3255 W ALTGELD ST","city":"CHICAGO","zip":"60647","phone":"7732354073","facilityType":"DCC","dayAge":"2Y TO 6Y","nightAge":"0","lang1":"ENGLISH","dayCap":76,"nightCap":0,"status":"Pending renewal application (RN)","lat":41.92646,"lon":-87.709664},{"id":"469709","name":"KNOWLEDGE BEGINNINGS GLENVIEW","street":"2401 COMPASS RD","city":"GLENVIEW","zip":"60026","phone":"8477290204","facilityType":"DCC","dayAge":"6W TO 6Y","nightAge":"0","lang1":"ENGLISH","dayCap":78,"nightCap":0,"status":"License issued (IL)","lat":42.099064,"lon":-87.817265},{"id":"469889","name":"JOYFUL NOISE CHRISTIAN DAYCARE INC","street":"4243 N NORTH AVE","city":"CHICAGO","zip":"60639","phone":"7732525990","facilityType":"DCC","dayAge":"6W TO 12Y","nightAge":"0","lang1":"ENGLISH","dayCap":136,"nightCap":0,"status":"Pending renewal application (RN)","lat":41.909745,"lon":-87.731867},{"id":"470065","name":"CYC - GEORGE E TAYLOR","street":"3232 W DIVISION ST","city":"CHICAGO","zip":"60651","phone":"7734893157","facilityType":"DCC","dayAge":"15M TO 2Y","nightAge":"0","lang1":"ENGLISH","dayCap":27,"nightCap":0,"status":"License issued (IL)","lat":41.902877,"lon":-87.707758},{"id":"471001","name":"SWIFT CHILD CARE","street":"8260 ELMWOOD AVE","city":"SKOKIE","zip":"60077","phone":"8006756039","facilityType":"DCC","dayAge":"6W TO 5Y","nightAge":"0","lang1":"ENGLISH","dayCap":127,"nightCap":0,"status":"Pending renewal application (RN)","lat":42.031286,"lon":-87.751099},{"id":"569783","name":"CEE CEE'Z IMAGINATION STATION PRESCHOOL","street":"60 RICHMOND AVE","city":"MATTOON","zip":"61938","phone":"2172355149","facilityType":"DCC","dayAge":"6W TO 12Y","nightAge":"6W TO 12Y","lang1":"ENGLISH","dayCap":75,"nightCap":30,"status":"License issued (IL)","lat":39.484868,"lon":-88.352468},{"id":"569819","name":"EVERBROOK ACADEMY","street":"3090 W MAIN STREET","city":"ST CHARLES","zip":"60175","phone":"6305492627","facilityType":"DCC","dayAge":"6W TO 12Y","nightAge":"0","lang1":"ENGLISH","dayCap":140,"nightCap":0,"status":"License issued (IL)","lat":41.945337,"lon":-88.395392},{"id":"569893","name":"5 STAR CHILD CARE DEVELOPMENT CENTER INC","street":"2811 W 5TH AVE","city":"CHICAGO","zip":"60612","phone":"7735654880","facilityType":"DCC","dayAge":"15M TO 5Y","nightAge":"0","lang1":"ENGLISH","dayCap":15,"nightCap":0,"status":"Pending renewal application (RN)","lat":41.880769,"lon":-87.697175},{"id":"569939","name":"MONTESSORI CHILDREN'S COMMUNITY, INC.","street":"3424 MAPLE AVE","city":"BROOKFIELD","zip":"60513","phone":"7084859542","facilityType":"DCC","dayAge":"2Y TO 3Y","nightAge":"0","lang1":"ENGLISH","dayCap":12,"nightCap":0,"status":"License issued (IL)","lat":41.829137,"lon":-87.851656},{"id":"570328","name":"STORYTIME LEARNING CENTER","street":"1814 WAUKEGAN RD # 1818","city":"GLENVIEW","zip":"60025","phone":"8477303534","facilityType":"DCC","dayAge":"15M TO 6Y","nightAge":"0","lang1":"ENGLISH","dayCap":86,"nightCap":0,"status":"License issued (IL)","lat":42.087698,"lon":-87.79817},{"id":"570676","name":"LA CASA MONTESSORI SCHOOL","street":"608 HARRISON ST","city":"OAK PARK","zip":"60304","phone":"7087638616","facilityType":"DCC","dayAge":"15M TO 3Y","nightAge":"0","lang1":"ENGLISH","dayCap":77,"nightCap":0,"status":"License issued (IL)","lat":41.872612,"lon":-87.789516},{"id":"570819","name":"L & L LVE INFANT CORP","street":"1046 W BELMONT AVE","city":"CHICAGO","zip":"60657","phone":"7737998272","facilityType":"DCC","dayAge":"6W TO 14M","nightAge":"0","lang1":"ENGLISH","dayCap":18,"nightCap":0,"status":"Pending renewal application (RN)","lat":41.939943,"lon":-87.655513},{"id":"570857","name":"CONCORDIA PLACE","street":"3696 N MILWAUKEE AVE","city":"CHICAGO","zip":"60641","phone":"7734811998","facilityType":"DCC","dayAge":"6W TO 5Y","nightAge":"0","lang1":"ENGLISH","dayCap":67,"nightCap":0,"status":"License issued (IL)","lat":41.947995,"lon":-87.738578},{"id":"571201","name":"LEARNING OAK","street":"6429 NORTH AVENUE","city":"OAK PARK","zip":"60302","phone":"7089487739","facilityType":"DCC","dayAge":"2Y TO 6Y","nightAge":"0","lang1":"ENGLISH","dayCap":28,"nightCap":0,"status":"License issued (IL)","lat":41.909084,"lon":-87.785727},{"id":"571504","name":"GUIDEPOST MONTESSORI AT MAGNIFICENT MILE","street":"226 E ILLINOIS ST","city":"CHICAGO","zip":"60611","phone":"3127969400","facilityType":"DCC","dayAge":"6W TO 3Y","nightAge":"0","lang1":"ENGLISH","dayCap":102,"nightCap":0,"status":"Pending renewal application (RN)","lat":41.891043,"lon":-87.621226},{"id":"571630","name":"OPUS MONTESSORI SCHOOL","street":"180 HAWTHORNE RD","city":"BARRINGTON","zip":"60010","phone":"6305686787","facilityType":"DCC","dayAge":"2Y TO 5Y","nightAge":"0","lang1":"ENGLISH","dayCap":48,"nightCap":0,"status":"License issued (IL)","lat":42.116306,"lon":-88.174307},{"id":"571892","name":"PAT A CAKE LEARNING ACADEMY LLC","street":"1412 WASHINGTON RD","city":"WASHINGTON","zip":"61571","phone":"3094442400","facilityType":"DCC","dayAge":"6W TO 12Y","nightAge":"0","lang1":"ENGLISH","dayCap":73,"nightCap":0,"status":"License issued (IL)","lat":40.703759,"lon":-89.42939},{"id":"572227","name":"10TH STREET CHILDREN'S ACADEMY","street":"208 S 10TH ST","city":"QUINCY","zip":"62301","phone":"2172141095","facilityType":"DCC","dayAge":"6W TO 5Y","nightAge":"0","lang1":"ENGLISH","dayCap":126,"nightCap":0,"status":"License issued (IL)","lat":39.930419,"lon":-91.400048},{"id":"572390","name":"TEENY TINY UNIVERSITY, INCORPORATED","street":"6111 S COTTAGE GROVE AVE","city":"CHICAGO","zip":"60637","phone":"7084912748","facilityType":"DCC","dayAge":"6W TO 12Y","nightAge":"0","lang1":"ENGLISH","dayCap":104,"nightCap":0,"status":"Pending renewal application (RN)","lat":41.783827,"lon":-87.605926},{"id":"572461","name":"BLOOMING CHILDREN'S ACADEMY LLC","street":"3956 W GRAND AVE","city":"CHICAGO","zip":"60651","phone":"7734869503","facilityType":"DCC","dayAge":"6W TO 12Y","nightAge":"0","lang1":"ENGLISH","dayCap":68,"nightCap":0,"status":"License issued (IL)","lat":41.905884,"lon":-87.725562},{"id":"572866","name":"ROOM TO PLAY NFP","street":"8855 S STATE ST","city":"CHICAGO","zip":"60619","phone":"7732184657","facilityType":"DCC","dayAge":"15M TO 5Y","nightAge":"0","lang1":"ENGLISH","dayCap":20,"nightCap":0,"status":"License issued (IL)","lat":41.733445,"lon":-87.623975},{"id":"573615","name":"KENSINGTON SCHOOL OF ARLINGTON HEIGHTS","street":"840 E KENSINGTON RD","city":"ARLINGTON HTS","zip":"60004","phone":"6309908000","facilityType":"DCC","dayAge":"6W TO 6Y","nightAge":"0","lang1":"ENGLISH","dayCap":159,"nightCap":0,"status":"License issued (IL)","lat":42.081024,"lon":-87.972343},{"id":"574071","name":"RAYITO DE SOL SPANISH IMMERSION ELC","street":"2550 W ADDISON ST STE A14","city":"CHICAGO","zip":"60618","phone":"3128185750","facilityType":"DCC","dayAge":"6W TO 6Y","nightAge":"0","lang1":"ENGLISH","dayCap":219,"nightCap":0,"status":"License issued (IL)","lat":41.946772,"lon":-87.692571},{"id":"574610","name":"A STEPPING STONE FOR KIDS","street":"924 GRAND BLVD","city":"WAUCONDA","zip":"60084","phone":"8474878960","facilityType":"DCC","dayAge":"6W TO 12Y","nightAge":"0","lang1":"ENGLISH","dayCap":63,"nightCap":0,"status":"License issued (IL)","lat":42.273742,"lon":-88.120495},{"id":"574769","name":"ALPHA MONTESSORI SCHOOL","street":"1625 S MANNHEIM RD","city":"WESTCHESTER","zip":"60154","phone":"7088650099","facilityType":"DCC","dayAge":"2Y TO 5Y","nightAge":"0","lang1":"ENGLISH","dayCap":36,"nightCap":0,"status":"License issued (IL)","lat":41.855133,"lon":-87.881965},{"id":"574779","name":"EL RUISENOR Y EL SOL ACADEMY","street":"2717 W TOUHY AVE","city":"CHICAGO","zip":"60645","phone":"8722085442","facilityType":"DCC","dayAge":"6W TO 2Y","nightAge":"0","lang1":"ENGLISH","dayCap":12,"nightCap":0,"status":"License issued (IL)","lat":42.012053,"lon":-87.697787},{"id":"574839","name":"SPARK MONTESSORI","street":"4326 N CALIFORNIA AVE","city":"CHICAGO","zip":"60618","phone":"7737907155","facilityType":"DCC","dayAge":"15M TO 6Y","nightAge":"0","lang1":"ENGLISH","dayCap":70,"nightCap":0,"status":"License issued (IL)","lat":41.959921,"lon":-87.698501},{"id":"574841","name":"TINY FRIENDS PRESCHOOL","street":"510 COLONA RD","city":"GREEN ROCK","zip":"61241","phone":"3092362497","facilityType":"DCC","dayAge":"2Y TO 6Y","nightAge":"0","lang1":"ENGLISH","dayCap":22,"nightCap":0,"status":"License issued (IL)","lat":41.481626,"lon":-90.352632},{"id":"575063","name":"KINGS & QUEENS ACADEMY DAYCARE CTR INC","street":"817 N HAMLIN AVE","city":"CHICAGO","zip":"60651","phone":"7734893440","facilityType":"DCC","dayAge":"6W TO 12Y","nightAge":"6W TO 12Y","lang1":"ENGLISH","dayCap":47,"nightCap":32,"status":"License issued (IL)","lat":41.896076,"lon":-87.721137},{"id":"575065","name":"TIA CORAZONCITO LEARNING & DAYCARE CTR#2","street":"5600 W 26TH ST","city":"CICERO","zip":"60804","phone":"7736142465","facilityType":"DCC","dayAge":"2Y TO 12Y","nightAge":"0","lang1":"ENGLISH","dayCap":37,"nightCap":0,"status":"License issued (IL)","lat":41.843749,"lon":-87.763796},{"id":"576154","name":"RISE UP EARLY CHILDHOOD","street":"6921 N RIDGE BLVD","city":"CHICAGO","zip":"60645","phone":"7738183939","facilityType":"DCC","dayAge":"2Y TO 5Y","nightAge":"0","lang1":"ENGLISH","dayCap":27,"nightCap":0,"status":"License issued (IL)","lat":42.006676,"lon":-87.680765},{"id":"576727","name":"ACTIVE CHILDCARE","street":"1607 LEGACY CIR","city":"NAPERVILLE","zip":"60563","phone":"6302451101","facilityType":"DCC","dayAge":"6W TO 6Y","nightAge":"0","lang1":"ENGLISH","dayCap":155,"nightCap":0,"status":"License issued (IL)","lat":41.791304,"lon":-88.168012},{"id":"576901","name":"CHILDREN'S LAND AT GRAYSLAKE","street":"130 S ATKINSON RD","city":"GRAYSLAKE","zip":"60030","phone":"2242522143","facilityType":"DCC","dayAge":"6W TO 12Y","nightAge":"0","lang1":"ENGLISH","dayCap":163,"nightCap":0,"status":"License issued (IL)","lat":42.343873,"lon":-88.024176},{"id":"577608","name":"CATERPILLAR CARE","street":"505 N SAINT CLAIR ST","city":"CHICAGO","zip":"60611","phone":"3126000003","facilityType":"DCC","dayAge":"6W TO 36M","nightAge":"0","lang1":"ENGLISH","dayCap":42,"nightCap":0,"status":"Pending renewal application (RN)","lat":41.891131,"lon":-87.622581},{"id":"577818","name":"FIRST CHRISTIAN PRESCHOOL","street":"2106 S MAIN ST","city":"S JACKSONVILLE","zip":"62650","phone":"2172436445","facilityType":"DCC","dayAge":"2Y TO 6Y","nightAge":"0","lang1":"ENGLISH","dayCap":46,"nightCap":0,"status":"License issued (IL)","lat":39.700361,"lon":-90.229195},{"id":"577986","name":"KIDS FUTURE DAY CARE CENTER","street":"4848 N SHERIDAN RD UNIT 103","city":"CHICAGO","zip":"60640","phone":"3129457893","facilityType":"DCC","dayAge":"6W TO 5Y","nightAge":"0","lang1":"ENGLISH","dayCap":68,"nightCap":0,"status":"License issued (IL)","lat":41.970879,"lon":-87.654945},{"id":"578987","name":"OPEN SPACE EARLY LEARNING CENTER","street":"4846 N CLARK ST","city":"CHICAGO","zip":"60640","phone":"7732937916","facilityType":"DCC","dayAge":"6W TO 5Y","nightAge":"0","lang1":"ENGLISH","dayCap":67,"nightCap":0,"status":"License issued (IL)","lat":41.97029,"lon":-87.667737},{"id":"579070","name":"PARK CENTER","street":"2400 CHESTNUT AVE","city":"GLENVIEW","zip":"60026","phone":"2245212550","facilityType":"DCC","dayAge":"2Y TO 5Y","nightAge":"0","lang1":"ENGLISH","dayCap":88,"nightCap":0,"status":"Pending renewal application (RN)","lat":42.087485,"lon":-87.81865},{"id":"579145","name":"LITTLE FOOTPRINTS CHILDCARE CENTER","street":"20915 S CICERO AVE","city":"MATTESON","zip":"60443","phone":"7082717513","facilityType":"DCC","dayAge":"6W TO 6Y","nightAge":"0","lang1":"ENGLISH","dayCap":109,"nightCap":0,"status":"License issued (IL)","lat":41.509679,"lon":-87.732264},{"id":"579199","name":"THE LEARNING PLACE LLC","street":"406 E 75TH ST","city":"CHICAGO","zip":"60619","phone":"7736332503","facilityType":"DCC","dayAge":"6W TO 12Y","nightAge":"6W TO 12Y","lang1":"ENGLISH","dayCap":72,"nightCap":64,"status":"Pending renewal application (RN)","lat":41.758467,"lon":-87.614814},{"id":"579833","name":"LITTLE SAGES LEARNING CENTER","street":"4 SAGE FIELDS BLVD","city":"MONTICELLO","zip":"61856","phone":"2177622525","facilityType":"DCC","dayAge":"6W TO 12Y","nightAge":"0","lang1":"ENGLISH","dayCap":218,"nightCap":0,"status":"License issued (IL)","lat":40.019621,"lon":-88.572906},{"id":"579940","name":"DANVILLE CHRISTIAN LEARNING CENTERS LLC","street":"50 E LIBERTY LN","city":"DANVILLE","zip":"61832","phone":"2172747026","facilityType":"DCC","dayAge":"6W TO 12Y","nightAge":"0","lang1":"ENGLISH","dayCap":166,"nightCap":0,"status":"Pending renewal application (RN)","lat":40.17503,"lon":-87.625634},{"id":"001036","name":"THE CHILDREN'S CENTER INC","street":"12803 S HALSTED ST","city":"CHICAGO","zip":"60628","phone":"7732645171","facilityType":"DCC","dayAge":"6W TO 12Y","nightAge":"6W TO 12Y","lang1":"ENGLISH","dayCap":161,"nightCap":62,"status":"License issued (IL)","lat":41.660951,"lon":-87.641276},{"id":"001146","name":"AGAPE' CHILDREN'S CENTER","street":"28W444 MAIN ST","city":"WARRENVILLE","zip":"60555","phone":"6303934205","facilityType":"DCC","dayAge":"3Y TO 5Y","nightAge":"0","lang1":"ENGLISH","dayCap":20,"nightCap":0,"status":"License issued (IL)","lat":41.820228,"lon":-88.176736},{"id":"001887","name":"BARBEREUX SCHOOL INC","street":"3333 CULVER ST","city":"EVANSTON","zip":"60201","phone":"8478643215","facilityType":"DCC","dayAge":"3Y TO 7Y","nightAge":"0","lang1":"ENGLISH","dayCap":52,"nightCap":0,"status":"Pending renewal application (RN)","lat":42.063662,"lon":-87.726814},{"id":"002076","name":"BCMW CENTRALIA HEAD START","street":"1101 S LOCUST ST","city":"CENTRALIA","zip":"62801","phone":"6185324890","facilityType":"DCC","dayAge":"6W TO 5Y","nightAge":"0","lang1":"ENGLISH","dayCap":144,"nightCap":0,"status":"License issued (IL)","lat":38.51602,"lon":-89.137101},{"id":"002545","name":"BLACKHAWK LEARNING CONNECTION","street":"421 BUCKBEE ST","city":"ROCKFORD","zip":"61104","phone":"8159628853","facilityType":"DCC","dayAge":"6W TO 12Y","nightAge":"0","lang1":"ENGLISH","dayCap":132,"nightCap":0,"status":"Pending renewal application (RN)","lat":42.252864,"lon":-89.091747},{"id":"002893","name":"BRADLEY LEARNING CENTER","street":"1717 PHILO RD STE 36","city":"URBANA","zip":"61802","phone":"2173376900","facilityType":"DCC","dayAge":"6W TO 12Y","nightAge":"0","lang1":"ENGLISH","dayCap":99,"nightCap":0,"status":"License issued (IL)","lat":40.098042,"lon":-88.190818},{"id":"003022","name":"BRIDGEPORT CHILD DEVELOPMENT","street":"3053 S NORMAL AVE","city":"CHICAGO","zip":"60616","phone":"3128425566","facilityType":"DCC","dayAge":"2Y TO 12Y","nightAge":"0","lang1":"CHINESE","dayCap":153,"nightCap":0,"status":"License issued (IL)","lat":41.838497,"lon":-87.638907},{"id":"003382","name":"BUILDING BLOCKS PRE-SCHOOL","street":"60 AKENSIDE ROAD","city":"RIVERSIDE","zip":"60546","phone":"7084473373","facilityType":"DCC","dayAge":"3Y TO 5Y","nightAge":"0","lang1":"ENGLISH","dayCap":30,"nightCap":0,"status":"License issued (IL)","lat":41.829896,"lon":-87.819741},{"id":"003564","name":"BUTTONS & BOWS COOP NURS I","street":"314 W VALLETTE ST","city":"ELMHURST","zip":"60126","phone":"6308332141","facilityType":"DCC","dayAge":"2Y TO 6Y","nightAge":"0","lang1":"ENGLISH","dayCap":36,"nightCap":0,"status":"License issued (IL)","lat":41.882671,"lon":-87.950767},{"id":"003664","name":"CALVARY TEMPLE DAY CARE CENTER","street":"1730 WEST JEFFERSON","city":"SPRINGFIELD","zip":"62702","phone":"2175469700","facilityType":"DCC","dayAge":"6W TO 7Y","nightAge":"0","lang1":"ENGLISH","dayCap":163,"nightCap":0,"status":"License issued (IL)","lat":39.808985,"lon":-89.68519},{"id":"003732","name":"CANTON YMCA PRE-SCHOOL CTR","street":"1325 EAST ASH STREET","city":"CANTON","zip":"61520","phone":"3096471616","facilityType":"DCC","dayAge":"3Y TO 6Y","nightAge":"0","lang1":"ENGLISH","dayCap":20,"nightCap":0,"status":"License issued (IL)","lat":40.560816,"lon":-90.015675},{"id":"004037","name":"CERRO GORDO COMMUNITY PRESCHOOL","street":"104 E CARTER","city":"CERRO GORDO","zip":"61818","phone":"2177636647","facilityType":"DCC","dayAge":"3Y TO 6Y","nightAge":"0","lang1":"ENGLISH","dayCap":20,"nightCap":0,"status":"License issued (IL)","lat":39.892921,"lon":-88.733115},{"id":"004148","name":"CHEERFUL HOME CHILDCARE & EARLY LEARNING","street":"315 S 5TH ST","city":"QUINCY","zip":"62301","phone":"2172280654","facilityType":"DCC","dayAge":"6W TO 12Y","nightAge":"0","lang1":"ENGLISH","dayCap":186,"nightCap":0,"status":"License issued (IL)","lat":39.929128,"lon":-91.408372},{"id":"004199","name":"DACC CHILD DEVELOPMENT CENTER","street":"2000 E MAIN ST","city":"DANVILLE","zip":"61832","phone":"2174438833","facilityType":"DCC","dayAge":"15M TO 12Y","nightAge":"0","lang1":"ENGLISH","dayCap":77,"nightCap":0,"status":"License issued (IL)","lat":40.131797,"lon":-87.59136},{"id":"004323","name":"UNION CHURCH EARLY CHILDHOOD PROGRAMS","street":"137 SOUTH GARFIELD STREET","city":"HINSDALE","zip":"60521","phone":"6303233314","facilityType":"DCC","dayAge":"6W TO 12Y","nightAge":"0","lang1":"ENGLISH","dayCap":145,"nightCap":0,"status":"Pending renewal application (RN)","lat":41.80125,"lon":-87.92708},{"id":"004733","name":"COMMUNITY CHD CARE CNTR PALATINE TWNSHP","street":"721 SOUTH QUENTIN ROAD","city":"PALATINE","zip":"60067","phone":"8479911030","facilityType":"DCC","dayAge":"6W TO 7Y","nightAge":"0","lang1":"ENGLISH","dayCap":91,"nightCap":0,"status":"License issued (IL)","lat":42.096644,"lon":-88.063022},{"id":"004746","name":"COMMUNITY PRESBYTERIAN CHILDREN'S PRGRM","street":"39 N PROSPECT AVE","city":"CLARENDON HLS","zip":"60514","phone":"6306544014","facilityType":"DCC","dayAge":"30M TO 12Y","nightAge":"0","lang1":"ENGLISH","dayCap":86,"nightCap":0,"status":"License issued (IL)","lat":41.798586,"lon":-87.954795},{"id":"004872","name":"COOP NS 1ST CHURCH-LOMBARD","street":"220 SOUTH MAIN STREET","city":"LOMBARD","zip":"60148","phone":"6306292630","facilityType":"DCC","dayAge":"2Y TO 6Y","nightAge":"0","lang1":"ENGLISH","dayCap":53,"nightCap":0,"status":"Pending renewal application (RN)","lat":41.883666,"lon":-88.018398},{"id":"005594","name":"YWCA YOUNG WONDERS","street":"1201 N HERSHEY RD","city":"BLOOMINGTON","zip":"61704","phone":"3096627826","facilityType":"DCC","dayAge":"6W TO 12Y","nightAge":"0","lang1":"ENGLISH","dayCap":266,"nightCap":0,"status":"Pending renewal application (RN)","lat":40.490447,"lon":-88.943063},{"id":"005681","name":"DECATUR DAY CARE CENTER","street":"2074 E LAKE SHORE DRIVE","city":"DECATUR","zip":"62521","phone":"2174222044","facilityType":"DCC","dayAge":"6W TO 12Y","nightAge":"0","lang1":"ENGLISH","dayCap":149,"nightCap":0,"status":"License issued (IL)","lat":39.826472,"lon":-88.930552},{"id":"006486","name":"CEFS HEAD START 0-5 PROGRAM-EFFINGHAM","street":"100 E MARKET AVE","city":"EFFINGHAM","zip":"62401","phone":"2172599632","facilityType":"DCC","dayAge":"3Y TO 5Y","nightAge":"0","lang1":"ENGLISH","dayCap":50,"nightCap":0,"status":"License issued (IL)","lat":39.123194,"lon":-88.541998},{"id":"006658","name":"THE EPISCOPAL PRESCHOOL INC","street":"400 WESTMINSTER","city":"LAKE FOREST","zip":"60045","phone":"8472347980","facilityType":"DCC","dayAge":"2Y TO 6Y","nightAge":"0","lang1":"ENGLISH","dayCap":40,"nightCap":0,"status":"License issued (IL)","lat":42.25402,"lon":-87.83753},{"id":"006763","name":"FAMILIES TOGETHER COOP NURSERY SCHOOL","street":"1500 W ELMDALE AVE","city":"CHICAGO","zip":"60660","phone":"7733815200","facilityType":"DCC","dayAge":"2Y TO 6Y","nightAge":"0","lang1":"ENGLISH","dayCap":40,"nightCap":0,"status":"Pending renewal application (RN)","lat":41.990889,"lon":-87.667678},{"id":"007043","name":"FIRST CONGREGATIONAL CH. NURSERY SCHOOL","street":"766 GRACELAND AVE","city":"DES PLAINES","zip":"60016","phone":"8472995561","facilityType":"DCC","dayAge":"3Y TO 6Y","nightAge":"0","lang1":"ENGLISH","dayCap":82,"nightCap":0,"status":"Pending renewal application (RN)","lat":42.039086,"lon":-87.891805},{"id":"007175","name":"ALDRIDGE EARLY LEARNING CENTER","street":"489 27TH ST","city":"EAST MOLINE","zip":"61244","phone":"3097555031","facilityType":"DCC","dayAge":"6W TO 12Y","nightAge":"0","lang1":"ENGLISH","dayCap":154,"nightCap":0,"status":"License issued (IL)","lat":41.527205,"lon":-90.415817},{"id":"007188","name":"FLOSSMOOR COMM UNITY CHURCH WEEKDAY PS","street":"2220 CARROLL PARKWAY","city":"FLOSSMOOR","zip":"60422","phone":"7087981876","facilityType":"DCC","dayAge":"2Y TO 6Y","nightAge":"0","lang1":"ENGLISH","dayCap":74,"nightCap":0,"status":"License issued (IL)","lat":41.545245,"lon":-87.670937},{"id":"008012","name":"GLENCOE JR KINDERGARTEN & NURSERY SCHOOL","street":"999 GREEN BAY ROAD","city":"GLENCOE","zip":"60022","phone":"8478354455","facilityType":"DCC","dayAge":"2Y TO 6Y","nightAge":"0","lang1":"ENGLISH","dayCap":96,"nightCap":0,"status":"Pending renewal application (RN)","lat":42.141018,"lon":-87.763342},{"id":"008031","name":"GLENVIEW METHODIST PRE-SCHOOL","street":"727 HARLEM AVENUE","city":"GLENVIEW","zip":"60025","phone":"8477293606","facilityType":"DCC","dayAge":"2Y TO 6Y","nightAge":"0","lang1":"ENGLISH","dayCap":95,"nightCap":0,"status":"License issued (IL)","lat":42.068404,"lon":-87.80556},{"id":"072790","name":"FLOWER GARDEN DAY CARE","street":"2420 E RAND RD","city":"ARLINGTON HTS","zip":"60004","phone":"8473928983","facilityType":"DCC","dayAge":"3Y TO 12Y","nightAge":"0","lang1":"ENGLISH","dayCap":40,"nightCap":0,"status":"License issued (IL)","lat":42.112831,"lon":-87.975231},{"id":"078226","name":"KINDERCARE LEARNING CENTER #300924","street":"150 W JOHN CASEY RD","city":"BOURBONNAIS","zip":"60914","phone":"8159352110","facilityType":"DCC","dayAge":"6W TO 12Y","nightAge":"0","lang1":"ENGLISH","dayCap":125,"nightCap":0,"status":"License issued (IL)","lat":41.165671,"lon":-87.877011},{"id":"080030","name":"LAKE SHORE SCHOOL","street":"5611 N CLARK ST # 21","city":"CHICAGO","zip":"60660","phone":"7735616707","facilityType":"DCC","dayAge":"6W TO 5Y","nightAge":"0","lang1":"ENGLISH","dayCap":122,"nightCap":0,"status":"License issued (IL)","lat":41.983858,"lon":-87.668758},{"id":"080367","name":"KINDERCARE LEARNING CTR 300972","street":"1003 S ARLINGTON HEIGHTS RD","city":"ARLINGTON HTS","zip":"60005","phone":"8475937510","facilityType":"DCC","dayAge":"6W TO 12Y","nightAge":"0","lang1":"ENGLISH","dayCap":123,"nightCap":0,"status":"License issued (IL)","lat":42.066437,"lon":-87.979873},{"id":"081786","name":"CENTRO INFANTIL CONSULO LEE CORRETJE","street":"1345 N ROCKWELL ST","city":"CHICAGO","zip":"60622","phone":"7733428866","facilityType":"DCC","dayAge":"6W TO 5Y","nightAge":"0","lang1":"ENGLISH","dayCap":86,"nightCap":0,"status":"License issued (IL)","lat":41.906228,"lon":-87.691958},{"id":"082636","name":"THORNTON TWSP H.S.DIST 205 INFANT CARE","street":"15001 BROADWAY AVE","city":"HARVEY","zip":"60426","phone":"7082254036","facilityType":"DCC","dayAge":"6W TO 4Y","nightAge":"0","lang1":"ENGLISH","dayCap":37,"nightCap":0,"status":"License issued (IL)","lat":41.617123,"lon":-87.644519},{"id":"084819","name":"BEATRICE GLASSER NURSERY SCHOOL","street":"1235 N HARLEM AVE","city":"OAK PARK","zip":"60302","phone":"7083863937","facilityType":"DCC","dayAge":"2Y TO 6Y","nightAge":"0","lang1":"ENGLISH","dayCap":70,"nightCap":0,"status":"License issued (IL)","lat":41.902188,"lon":-87.805457},{"id":"085564","name":"KINDERCARE LEARNING CENTER #300884","street":"745 LONG GROVE DR","city":"AURORA","zip":"60504","phone":"6308200220","facilityType":"DCC","dayAge":"6W TO 12Y","nightAge":"0","lang1":"ENGLISH","dayCap":131,"nightCap":0,"status":"License issued (IL)","lat":41.740803,"lon":-88.241611},{"id":"002303","name":"BCMW BENTON HEAD START","street":"510 JOPLIN ST","city":"BENTON","zip":"62812","phone":"6185324890","facilityType":"DCC","dayAge":"3Y TO 5Y","nightAge":"0","lang1":"ENGLISH","dayCap":40,"nightCap":0,"status":"License issued (IL)","lat":38.002391,"lon":-88.915177},{"id":"003360","name":"BUEHLER YMCA PRESCH. & AFT. SC","street":"1400 WEST NORTHWEST HIGHWAY","city":"PALATINE","zip":"60067","phone":"8474105230","facilityType":"DCC","dayAge":"6W TO 5Y","nightAge":"0","lang1":"ENGLISH","dayCap":101,"nightCap":0,"status":"License issued (IL)","lat":42.12548,"lon":-88.075648},{"id":"003590","name":"TRUMAN COLLEGE CHILD DEV LAB SCHOOL","street":"1145 WEST WILSON","city":"CHICAGO","zip":"60640","phone":"7739074740","facilityType":"DCC","dayAge":"2Y TO 9Y","nightAge":"0","lang1":"ENGLISH","dayCap":56,"nightCap":0,"status":"Pending renewal application (RN)","lat":41.965324,"lon":-87.659063},{"id":"003905","name":"CASA CENTRAL SCHOOL AGE PROGRAM","street":"1335 NORTH CALIFORNIA","city":"CHICAGO","zip":"60622","phone":"7736452310","facilityType":"DCC","dayAge":"5Y TO 12Y","nightAge":"0","lang1":"ENGLISH","dayCap":79,"nightCap":0,"status":"Pending renewal application (RN)","lat":41.905771,"lon":-87.696874},{"id":"004202","name":"CHILD DEVELOPMENT LABORATORY","street":"875 S NORMAL AVE","city":"CARBONDALE","zip":"62901","phone":"6184534228","facilityType":"DCC","dayAge":"6W TO 6Y","nightAge":"0","lang1":"ENGLISH","dayCap":40,"nightCap":0,"status":"License issued (IL)","lat":37.717658,"lon":-89.217314},{"id":"004319","name":"C E F S HEAD START 0 5 PROGRAM PANA","street":"721 E WASHINGTON ST","city":"PANA","zip":"62557","phone":"2175625758","facilityType":"DCC","dayAge":"3Y TO 5Y","nightAge":"0","lang1":"ENGLISH","dayCap":20,"nightCap":0,"status":"License issued (IL)","lat":39.392752,"lon":-89.071465},{"id":"004329","name":"CHRISTIAN BEGINNINGS","street":"824 WAUKEGAN RD","city":"DEERFIELD","zip":"60015","phone":"8479455140","facilityType":"DCC","dayAge":"2Y TO 6Y","nightAge":"0","lang1":"ENGLISH","dayCap":130,"nightCap":0,"status":"License issued (IL)","lat":42.168086,"lon":-87.846052},{"id":"005138","name":"CREATIVE WORLD MONTESSORI SCHOOL","street":"1250 W GOODMAN AVE","city":"LA GRANGE","zip":"60525","phone":"7083545255","facilityType":"DCC","dayAge":"15M TO 3Y","nightAge":"0","lang1":"ENGLISH","dayCap":42,"nightCap":0,"status":"License issued (IL)","lat":41.806618,"lon":-87.885432},{"id":"005701","name":"DEERFIELD MONTESSORI SCHOOL","street":"760 NORTH AVENUE","city":"DEERFIELD","zip":"60015","phone":"8479457580","facilityType":"DCC","dayAge":"6W TO 3Y","nightAge":"0","lang1":"ENGLISH","dayCap":47,"nightCap":0,"status":"License issued (IL)","lat":42.181807,"lon":-87.846581},{"id":"005944","name":"DIXON HEAD START","street":"110 N GALENA AVE","city":"DIXON","zip":"61021","phone":"8156695769","facilityType":"DCC","dayAge":"3Y TO 6Y","nightAge":"0","lang1":"ENGLISH","dayCap":17,"nightCap":0,"status":"License issued (IL)","lat":41.846613,"lon":-89.483842},{"id":"006385","name":"EASTER SEAL JOLIET REGION","street":"212 BARNEY DRIVE","city":"JOLIET","zip":"60435","phone":"8157252194","facilityType":"DCC","dayAge":"6W TO 5Y","nightAge":"0","lang1":"ENGLISH","dayCap":48,"nightCap":0,"status":"License issued (IL)","lat":41.526612,"lon":-88.143228},{"id":"006676","name":"ERIE NEIGHBORHOOD HOUSE D.C. PROGRAM","street":"1347 WEST ERIE STREET","city":"CHICAGO","zip":"60622","phone":"3126663430","facilityType":"DCC","dayAge":"5Y TO 15Y","nightAge":"0","lang1":"ENGLISH","dayCap":88,"nightCap":0,"status":"License issued (IL)","lat":41.893378,"lon":-87.661263},{"id":"007042","name":"OPEN BIBLE LEARNING CENTER","street":"3800 W STEPHENSON ST","city":"FREEPORT","zip":"61032","phone":"8152357216","facilityType":"DCC","dayAge":"2Y TO 12Y","nightAge":"0","lang1":"ENGLISH","dayCap":217,"nightCap":0,"status":"Pending renewal application (RN)","lat":42.293489,"lon":-89.689086},{"id":"007047","name":"FIRST LUTHERAN PRE-SCHOOL","street":"114 EAST MAIN STREET","city":"GENESEO","zip":"61254","phone":"3099444306","facilityType":"DCC","dayAge":"3Y TO 6Y","nightAge":"0","lang1":"ENGLISH","dayCap":20,"nightCap":0,"status":"License issued (IL)","lat":41.447888,"lon":-90.155446},{"id":"007602","name":"GADS HILL CENTER AFTER SCHOOL","street":"1919 WEST CULLERTON","city":"CHICAGO","zip":"60608","phone":"3122260963","facilityType":"DCC","dayAge":"5Y TO 12Y","nightAge":"0","lang1":"ENGLISH","dayCap":74,"nightCap":0,"status":"Pending renewal application (RN)","lat":41.854894,"lon":-87.673969},{"id":"007841","name":"CHILDTIME CHILDRENS CENTER","street":"127 EAST ST. CHARLES ROAD","city":"VILLA PARK","zip":"60181","phone":"6308345625","facilityType":"DCC","dayAge":"6W TO 12Y","nightAge":"0","lang1":"ENGLISH","dayCap":105,"nightCap":0,"status":"License issued (IL)","lat":41.889773,"lon":-87.975774},{"id":"008030","name":"GLENVIEW COMMUNITY CHURCH NURSERY SCHOOL","street":"1000 ELM STREET","city":"GLENVIEW","zip":"60025","phone":"8477241440","facilityType":"DCC","dayAge":"2Y TO 7Y","nightAge":"0","lang1":"ENGLISH","dayCap":94,"nightCap":0,"status":"License issued (IL)","lat":42.072931,"lon":-87.810456},{"id":"008191","name":"GRACE CHURCH NURSERY SCHOOL","street":"120 EAST 1ST STREET","city":"HINSDALE","zip":"60521","phone":"6303234900","facilityType":"DCC","dayAge":"2Y TO 6Y","nightAge":"0","lang1":"ENGLISH","dayCap":60,"nightCap":0,"status":"License issued (IL)","lat":41.801594,"lon":-87.926036},{"id":"070749","name":"SPRINGFIELD CHRISTIAN PRESCHOOL","street":"400 N BRUNS LN","city":"SPRINGFIELD","zip":"62702","phone":"2177877673","facilityType":"DCC","dayAge":"2Y TO 7Y","nightAge":"0","lang1":"ENGLISH","dayCap":96,"nightCap":0,"status":"License issued (IL)","lat":39.805979,"lon":-89.687097},{"id":"070795","name":"KINDERCARE LEARNING CTR 300922","street":"550 W CUBA RD","city":"LAKE ZURICH","zip":"60047","phone":"8474389330","facilityType":"DCC","dayAge":"6W TO 12Y","nightAge":"0","lang1":"ENGLISH","dayCap":122,"nightCap":0,"status":"License issued (IL)","lat":42.175719,"lon":-88.076993},{"id":"071515","name":"BRIGHT BEGINNINGS CHILD CARE CENTER","street":"49 DIECKE DR","city":"GLEN ELLYN","zip":"60137","phone":"6305472011","facilityType":"DCC","dayAge":"2Y TO 7Y","nightAge":"0","lang1":"ENGLISH","dayCap":96,"nightCap":0,"status":"Pending renewal application (RN)","lat":41.860042,"lon":-88.076083},{"id":"079006","name":"KINDERCARE LEARNING CTR 300968","street":"1125 W FLORENCE AVE","city":"PEORIA","zip":"61604","phone":"3096825669","facilityType":"DCC","dayAge":"6W TO 12Y","nightAge":"0","lang1":"ENGLISH","dayCap":116,"nightCap":0,"status":"License issued (IL)","lat":40.730606,"lon":-89.610521},{"id":"080857","name":"KENSINGTON SCHOOL OF WESTERN SPRINGS","street":"1500 WALKER ST","city":"WESTERN SPRGS","zip":"60558","phone":"6309908000","facilityType":"DCC","dayAge":"6W TO 12Y","nightAge":"0","lang1":"ENGLISH","dayCap":122,"nightCap":0,"status":"License issued (IL)","lat":41.808356,"lon":-87.909545},{"id":"081406","name":"KINDERCARE LEARNING CENTER #300935","street":"6420 COLLEGE RD","city":"LISLE","zip":"60532","phone":"6303690988","facilityType":"DCC","dayAge":"6W TO 12Y","nightAge":"0","lang1":"ENGLISH","dayCap":97,"nightCap":0,"status":"License issued (IL)","lat":41.768439,"lon":-88.097909},{"id":"084663","name":"KINDERCARE LEARNING CTR #301067","street":"929 E PALATINE RD","city":"PALATINE","zip":"60074","phone":"8473582233","facilityType":"DCC","dayAge":"6W TO 12Y","nightAge":"0","lang1":"ENGLISH","dayCap":124,"nightCap":0,"status":"License issued (IL)","lat":42.110159,"lon":-88.020974},{"id":"087791","name":"MCCORMICK CHILD CARE CENTER/SWEDISH COV.","street":"2824 W WINONA","city":"CHICAGO","zip":"60625","phone":"7739071008","facilityType":"DCC","dayAge":"6W TO 6Y","nightAge":"0","lang1":"ENGLISH","dayCap":86,"nightCap":0,"status":"License issued (IL)","lat":41.971884,"lon":-87.707384},{"id":"091294","name":"HOWARD MOHR COMMUNITY CENTER","street":"7640 JACKSON BLVD","city":"FOREST PARK","zip":"60130","phone":"7087717737","facilityType":"DCC","dayAge":"5Y TO 13Y","nightAge":"0","lang1":"ENGLISH","dayCap":60,"nightCap":0,"status":"License issued (IL)","lat":41.875729,"lon":-87.815066},{"id":"096320","name":"LITTLE FOLKS COTTAGE","street":"5926 W MADISON ST # 30","city":"CHICAGO","zip":"60644","phone":"7733794419","facilityType":"DCC","dayAge":"6W TO 6Y","nightAge":"0","lang1":"ENGLISH","dayCap":119,"nightCap":0,"status":"License issued (IL)","lat":41.880221,"lon":-87.772478},{"id":"100037","name":"WEE CARE PRESCHOOL","street":"2816 N PINE GROVE AVE","city":"CHICAGO","zip":"60657","phone":"7739292273","facilityType":"DCC","dayAge":"6W TO 6Y","nightAge":"0","lang1":"ENGLISH","dayCap":90,"nightCap":0,"status":"Pending renewal application (RN)","lat":41.933442,"lon":-87.641452},{"id":"110491","name":"YWCA DAY CARE CENTER","street":"315 BUENA VISTA AVE","city":"PEKIN","zip":"61554","phone":"3093472104","facilityType":"DCC","dayAge":"6W TO 12Y","nightAge":"0","lang1":"ENGLISH","dayCap":91,"nightCap":0,"status":"License issued (IL)","lat":40.567176,"lon":-89.646651},{"id":"112161","name":"CREATIVE MONTESSORI LEARNING CENTER","street":"550 S EDGEWOOD AVE","city":"LOMBARD","zip":"60148","phone":"6306205505","facilityType":"DCC","dayAge":"2Y TO 6Y","nightAge":"0","lang1":"ENGLISH","dayCap":75,"nightCap":0,"status":"License issued (IL)","lat":41.876174,"lon":-88.003397},{"id":"112220","name":"DIVERSEY DAY CARE CENTER & KINDERGARTEN","street":"3155 W DIVERSEY AVE","city":"CHICAGO","zip":"60647","phone":"7733427777","facilityType":"DCC","dayAge":"6W TO 12Y","nightAge":"0","lang1":"ENGLISH","dayCap":198,"nightCap":0,"status":"License issued (IL)","lat":41.93197,"lon":-87.706949},{"id":"284289","name":"STEP BY STEP","street":"333 MECHANICAL DR","city":"EAST ALTON","zip":"62024","phone":"6183776473","facilityType":"DCC","dayAge":"6W TO 12Y","nightAge":"0","lang1":"ENGLISH","dayCap":123,"nightCap":0,"status":"License issued (IL)","lat":38.881382,"lon":-90.084741},{"id":"285955","name":"NEW BEGINNING DAY CARE","street":"5445 W. NORTH AVENUE","city":"CHICAGO","zip":"60639","phone":"7733855365","facilityType":"DCC","dayAge":"6W TO 12Y","nightAge":"0","lang1":"ENGLISH","dayCap":133,"nightCap":0,"status":"Pending renewal application (RN)","lat":41.909361,"lon":-87.762393},{"id":"286264","name":"KINDERCARE LEARNING CENTER 301501","street":"80 S CONSTITUTION DR","city":"AURORA","zip":"60506","phone":"6309066582","facilityType":"DCC","dayAge":"6W TO 12Y","nightAge":"0","lang1":"ENGLISH","dayCap":144,"nightCap":0,"status":"License issued (IL)","lat":41.761727,"lon":-88.368395},{"id":"286408","name":"KINDERCARE LEARNING CTR  301495","street":"695 S IL ROUTE 83","city":"MUNDELEIN","zip":"60060","phone":"8479709554","facilityType":"DCC","dayAge":"6W TO 12Y","nightAge":"0","lang1":"ENGLISH","dayCap":153,"nightCap":0,"status":"License issued (IL)","lat":42.263678,"lon":-88.007106},{"id":"085776","name":"KINDERCARE LEARNING CTR 301043","street":"15700 CENTRAL AVE","city":"OAK FOREST","zip":"60452","phone":"7085352233","facilityType":"DCC","dayAge":"6W TO 12Y","nightAge":"0","lang1":"ENGLISH","dayCap":123,"nightCap":0,"status":"License issued (IL)","lat":41.606546,"lon":-87.756202},{"id":"086946","name":"KINDERCARE LEARNING CENTER #300989","street":"2 S 726 ROUTE 53","city":"GLEN ELLYN","zip":"60137","phone":"6308589333","facilityType":"DCC","dayAge":"6W TO 6Y","nightAge":"0","lang1":"ENGLISH","dayCap":116,"nightCap":0,"status":"Pending renewal application (RN)","lat":41.8338,"lon":-88.05426},{"id":"095984","name":"MCGAW YMCA CHILD CARE CENTER","street":"1420 MAPLE AVE","city":"EVANSTON","zip":"60201","phone":"8474758580","facilityType":"DCC","dayAge":"6W TO 12Y","nightAge":"0","lang1":"ENGLISH","dayCap":321,"nightCap":0,"status":"Pending renewal application (RN)","lat":42.043469,"lon":-87.68514},{"id":"110072","name":"KINDERCARE LEARNING CENTERS 301142","street":"1520 MAIN LN","city":"ELGIN","zip":"60123","phone":"8476970555","facilityType":"DCC","dayAge":"6W TO 12Y","nightAge":"0","lang1":"ENGLISH","dayCap":110,"nightCap":0,"status":"License issued (IL)","lat":42.024687,"lon":-88.314445},{"id":"111640","name":"RAUNER YMCA","street":"2700 S WESTERN AVE","city":"CHICAGO","zip":"60608","phone":"3125060130","facilityType":"DCC","dayAge":"2Y TO 12Y","nightAge":"0","lang1":"ENGLISH","dayCap":128,"nightCap":0,"status":"Pending renewal application (RN)","lat":41.84398,"lon":-87.685473},{"id":"111669","name":"CREATIVE KIDS, INC.","street":"410 N METTER AVE","city":"COLUMBIA","zip":"62236","phone":"6182817711","facilityType":"DCC","dayAge":"2Y TO 6Y","nightAge":"0","lang1":"ENGLISH","dayCap":59,"nightCap":0,"status":"License issued (IL)","lat":38.446535,"lon":-90.201984},{"id":"111951","name":"LITTLE BEAR ACADEMY, INC.","street":"6612 BARRINGTON RD","city":"HANOVER PARK","zip":"60133","phone":"6302132020","facilityType":"DCC","dayAge":"6W TO 12Y","nightAge":"0","lang1":"ENGLISH","dayCap":68,"nightCap":0,"status":"Pending renewal application (RN)","lat":41.993464,"lon":-88.144949},{"id":"113734","name":"THE LILY GARDEN CHILD CARE CTR","street":"830 S ADDISON AVE","city":"VILLA PARK","zip":"60181","phone":"6302616283","facilityType":"DCC","dayAge":"6W TO 6Y","nightAge":"0","lang1":"ENGLISH","dayCap":60,"nightCap":0,"status":"License issued (IL)","lat":41.907504,"lon":-87.98839},{"id":"115649","name":"TODDLE TOWNE ALTON LEARNING CENTER II","street":"3839 HUMBERT RD","city":"ALTON","zip":"62002","phone":"6184628852","facilityType":"DCC","dayAge":"6W TO 12Y","nightAge":"0","lang1":"ENGLISH","dayCap":121,"nightCap":0,"status":"License issued (IL)","lat":38.931202,"lon":-90.152222},{"id":"282745","name":"KOOL KIDS DAY CARE CENTER","street":"210 E HIGHWAY 40","city":"TROY","zip":"62294","phone":"6186676316","facilityType":"DCC","dayAge":"6W TO 12Y","nightAge":"0","lang1":"ENGLISH","dayCap":112,"nightCap":0,"status":"License issued (IL)","lat":38.720959,"lon":-89.867898},{"id":"283160","name":"TENDER BEGINNINGS LEARNING CENTER, LTD.","street":"2722 BROADWAY","city":"ROCKFORD","zip":"61108","phone":"8155199926","facilityType":"DCC","dayAge":"6W TO 6Y","nightAge":"0","lang1":"ENGLISH","dayCap":60,"nightCap":0,"status":"License issued (IL)","lat":42.252574,"lon":-89.053084},{"id":"283258","name":"PEPPERMINT STICK PRESCHOOL","street":"40 S WHITNEY ST","city":"GRAYSLAKE","zip":"60030","phone":"8472230611","facilityType":"DCC","dayAge":"6W TO 12Y","nightAge":"0","lang1":"ENGLISH","dayCap":71,"nightCap":0,"status":"License issued (IL)","lat":42.343545,"lon":-88.040355},{"id":"287230","name":"REDEEMER LUTHERAN PRESCHOOL & CHILD CARE","street":"6801 N. ALLEN ROAD","city":"PEORIA","zip":"61614","phone":"3096912333","facilityType":"DCC","dayAge":"6W TO 6Y","nightAge":"0","lang1":"ENGLISH","dayCap":146,"nightCap":0,"status":"License issued (IL)","lat":40.770059,"lon":-89.631276},{"id":"291676","name":"ERBA RICHLAND COUNTY HEAD START","street":"526 WEST SOUTH","city":"OLNEY","zip":"62450","phone":"6183936054","facilityType":"DCC","dayAge":"3Y TO 5Y","nightAge":"0","lang1":"ENGLISH","dayCap":34,"nightCap":0,"status":"License issued (IL)","lat":38.724186,"lon":-88.091419},{"id":"291788","name":"HENRY BOOTH HOUSE/NEAR SOUTH HEAD START","street":"2929 SOUTH WABASH","city":"CHICAGO","zip":"60616","phone":"3127910424","facilityType":"DCC","dayAge":"3Y TO 5Y","nightAge":"0","lang1":"ENGLISH","dayCap":39,"nightCap":0,"status":"License issued (IL)","lat":41.841621,"lon":-87.625149},{"id":"292901","name":"NEXT GENERATION EARLY LEARNING, INC.","street":"1201 W WINDSOR","city":"CHAMPAIGN","zip":"61821","phone":"2173566398","facilityType":"DCC","dayAge":"6W TO 3Y","nightAge":"0","lang1":"ENGLISH","dayCap":310,"nightCap":0,"status":"License issued (IL)","lat":40.08359,"lon":-88.26527},{"id":"294971","name":"THE CHILDREN'S CENTER OF CELEBRATION","street":"919 S WASHINGTON ST","city":"NAPERVILLE","zip":"60540","phone":"6302814300","facilityType":"DCC","dayAge":"2Y TO 6Y","nightAge":"0","lang1":"ENGLISH","dayCap":125,"nightCap":0,"status":"Pending renewal application (RN)","lat":41.757547,"lon":-88.145235},{"id":"295010","name":"A MOTHER'S TOUCH","street":"125 N DRYDEN AVENUE","city":"ARLINGTON HTS","zip":"60004","phone":"8475777600","facilityType":"DCC","dayAge":"6W TO 12Y","nightAge":"0","lang1":"ENGLISH","dayCap":166,"nightCap":0,"status":"License issued (IL)","lat":42.08382,"lon":-87.97069},{"id":"300653","name":"STEPPING STONES CHILD CARE","street":"17560 DIXIE HWY","city":"HOMEWOOD","zip":"60430","phone":"7089220386","facilityType":"DCC","dayAge":"6W TO 6Y","nightAge":"0","lang1":"ENGLISH","dayCap":72,"nightCap":0,"status":"License issued (IL)","lat":41.570508,"lon":-87.664866},{"id":"300659","name":"GOOD SHEPHERD LUTHERAN PRESCHOOL","street":"1310 SHEPHERD DR","city":"NAPERVILLE","zip":"60565","phone":"6309619055","facilityType":"DCC","dayAge":"2Y TO 6Y","nightAge":"0","lang1":"ENGLISH","dayCap":125,"nightCap":0,"status":"License issued (IL)","lat":41.746639,"lon":-88.160333},{"id":"303767","name":"BOBBIE NOONAN'S CHILD CARE LLC","street":"17051 GRISSOM DRIVE","city":"TINLEY PARK","zip":"60477","phone":"7085325566","facilityType":"DCC","dayAge":"6W TO 6Y","nightAge":"0","lang1":"ENGLISH","dayCap":93,"nightCap":0,"status":"License issued (IL)","lat":41.580761,"lon":-87.815234},{"id":"308521","name":"ST. JOHN'S EAGLE'S NEST PRESCHOOL","street":"901 WEST JEFFERSON AVENUE","city":"EFFINGHAM","zip":"62401","phone":"2173424334","facilityType":"DCC","dayAge":"3Y TO 5Y","nightAge":"0","lang1":"ENGLISH","dayCap":40,"nightCap":0,"status":"License issued (IL)","lat":39.122046,"lon":-88.552758},{"id":"309842","name":"LITTLE LAMBS PRESCHOOL OF IMMANUEL LUTHE","street":"511 RUSSELL RD","city":"DEKALB","zip":"60115","phone":"8157566669","facilityType":"DCC","dayAge":"3Y TO 6Y","nightAge":"0","lang1":"ENGLISH","dayCap":28,"nightCap":0,"status":"License issued (IL)","lat":41.938114,"lon":-88.768286},{"id":"315069","name":"BARLINA HOUSE PRESCHOOL","street":"705 BARLINA RD","city":"CRYSTAL LAKE","zip":"60014","phone":"8154775403","facilityType":"DCC","dayAge":"3Y TO 6Y","nightAge":"0","lang1":"ENGLISH","dayCap":49,"nightCap":0,"status":"License issued (IL)","lat":42.218887,"lon":-88.344764},{"id":"317016","name":"CUMBERLAND COUNTY ERBA HEAD START","street":"215 N JAY HAYDEN DR","city":"GREENUP","zip":"62428","phone":"2179233113","facilityType":"DCC","dayAge":"3Y TO 5Y","nightAge":"0","lang1":"ENGLISH","dayCap":20,"nightCap":0,"status":"License issued (IL)","lat":39.249754,"lon":-88.160898},{"id":"320997","name":"CASA CENTRAL CSC CHILD DEVELOPMENT CENTE","street":"1343 N CALIFORNIA AVE","city":"CHICAGO","zip":"60622","phone":"7736452300","facilityType":"DCC","dayAge":"2Y TO 5Y","nightAge":"0","lang1":"ENGLISH","dayCap":93,"nightCap":0,"status":"Pending renewal application (RN)","lat":41.905865,"lon":-87.696876},{"id":"324009","name":"BOBBIE NOONAN'S CHILD CARE LLC","street":"10155 S ROBERTS RD","city":"PALOS HILLS","zip":"60465","phone":"7085990101","facilityType":"DCC","dayAge":"15M TO 12Y","nightAge":"0","lang1":"ENGLISH","dayCap":86,"nightCap":0,"status":"License issued (IL)","lat":41.706237,"lon":-87.817325},{"id":"325305","name":"LITTLE ANGELS CHRISTIAN PRESCHOOL","street":"647 DUNDEE AVE","city":"BARRINGTON","zip":"60010","phone":"8473815490","facilityType":"DCC","dayAge":"18M TO 6Y","nightAge":"0","lang1":"ENGLISH","dayCap":87,"nightCap":0,"status":"Pending renewal application (RN)","lat":42.147156,"lon":-88.140845},{"id":"327486","name":"KIDDY KAMP ACADEMY","street":"6106 STATE ST","city":"E SAINT LOUIS","zip":"62203","phone":"6183979888","facilityType":"DCC","dayAge":"6W TO 12Y","nightAge":"6W TO 12Y","lang1":"ENGLISH","dayCap":71,"nightCap":71,"status":"License issued (IL)","lat":38.603647,"lon":-90.090115},{"id":"327959","name":"ST. PAUL'S LUTHERAN EARLY LEARNING CTR.","street":"1 BACHRACH CT","city":"DECATUR","zip":"62526","phone":"2174249183","facilityType":"DCC","dayAge":"6W TO 12Y","nightAge":"0","lang1":"ENGLISH","dayCap":151,"nightCap":0,"status":"License issued (IL)","lat":39.890596,"lon":-88.985797},{"id":"445012","name":"GOT KIDZ? CHILD CARE","street":"531 S MAIN ST","city":"BELVIDERE","zip":"61008","phone":"8155476900","facilityType":"DCC","dayAge":"6W TO 12Y","nightAge":"0","lang1":"ENGLISH","dayCap":135,"nightCap":0,"status":"License issued (IL)","lat":42.256544,"lon":-88.837511},{"id":"446015","name":"ST. HENRY CREATIVE LEARNING CENTER","street":"5303 W MAIN ST","city":"BELLEVILLE","zip":"62226","phone":"6182346061","facilityType":"DCC","dayAge":"15M TO 12Y","nightAge":"0","lang1":"ENGLISH","dayCap":92,"nightCap":0,"status":"License issued (IL)","lat":38.545967,"lon":-90.031471},{"id":"446632","name":"PETER PAN EARLY LEARNING CENTER","street":"809 W KIRBY AVE","city":"CHAMPAIGN","zip":"61820","phone":"2173633884","facilityType":"DCC","dayAge":"6W TO 12Y","nightAge":"0","lang1":"ENGLISH","dayCap":72,"nightCap":0,"status":"License issued (IL)","lat":40.098075,"lon":-88.256485},{"id":"447202","name":"CHILDREN'S WORLD","street":"3356 S ASHLAND AVE","city":"CHICAGO","zip":"60608","phone":"7735230100","facilityType":"DCC","dayAge":"6W TO 12Y","nightAge":"6W TO 12Y","lang1":"ENGLISH","dayCap":87,"nightCap":87,"status":"License issued (IL)","lat":41.832753,"lon":-87.665691},{"id":"449174","name":"KINDERCARE LEARNING CENTER 000367","street":"1275 JONES RD","city":"HOFFMAN EST","zip":"60169","phone":"8474900310","facilityType":"DCC","dayAge":"6W TO 12Y","nightAge":"0","lang1":"ENGLISH","dayCap":145,"nightCap":0,"status":"License issued (IL)","lat":42.050797,"lon":-88.099347},{"id":"449220","name":"KINDERCARE LEARNING CENTER 000897","street":"650 W WISE RD","city":"SCHAUMBURG","zip":"60193","phone":"8478951950","facilityType":"DCC","dayAge":"6W TO 12Y","nightAge":"0","lang1":"ENGLISH","dayCap":145,"nightCap":0,"status":"Pending renewal application (RN)","lat":42.004707,"lon":-88.097683},{"id":"001330","name":"ALTGELD I EARLY LEARNING CENTER","street":"13107 S INGLESIDE","city":"CHICAGO","zip":"60827","phone":"7734683055","facilityType":"DCC","dayAge":"6W TO 5Y","nightAge":"0","lang1":"ENGLISH","dayCap":166,"nightCap":0,"status":"License issued (IL)","lat":41.657187,"lon":-87.599307},{"id":"002330","name":"BERNARD HORWICH J.C.C. PRESCHOOL","street":"3003 W TOUHY AVE","city":"CHICAGO","zip":"60645","phone":"7735165881","facilityType":"DCC","dayAge":"2Y TO 6Y","nightAge":"0","lang1":"ENGLISH","dayCap":136,"nightCap":0,"status":"License issued (IL)","lat":42.011905,"lon":-87.704561},{"id":"002397","name":"BETHLEHEM PRESCHOOL CENTER","street":"1145 N 5TH AVE","city":"SAINT CHARLES","zip":"60174","phone":"6305846027","facilityType":"DCC","dayAge":"3Y TO 6Y","nightAge":"0","lang1":"ENGLISH","dayCap":113,"nightCap":0,"status":"License issued (IL)","lat":41.926552,"lon":-88.309977},{"id":"003418","name":"ZEARING CHILD ENRICHMENT CENTER INC.","street":"633 MASONIC DRIVE","city":"PRINCETON","zip":"61356","phone":"8158752335","facilityType":"DCC","dayAge":"6W TO 12Y","nightAge":"0","lang1":"ENGLISH","dayCap":154,"nightCap":0,"status":"License issued (IL)","lat":41.366777,"lon":-89.454755},{"id":"003535","name":"BUSY BEE CHILDREN'S CENTER","street":"2115 S ERNIE KRUEGER CIR","city":"WAUKEGAN","zip":"60087","phone":"8472456800","facilityType":"DCC","dayAge":"6W TO 6Y","nightAge":"0","lang1":"ENGLISH","dayCap":139,"nightCap":0,"status":"License issued (IL)","lat":42.391249,"lon":-87.886966},{"id":"003665","name":"CALVARY CHILDREN'S CENTER","street":"9S200 ROUTE 59","city":"NAPERVILLE","zip":"60564","phone":"6303758700","facilityType":"DCC","dayAge":"6W TO 5Y","nightAge":"0","lang1":"ENGLISH","dayCap":68,"nightCap":0,"status":"License issued (IL)","lat":41.739758,"lon":-88.206246},{"id":"003718","name":"CHILD DEVELOPMENT AND FAMILY CENTER","street":"CAMPUS CHILD CARE CENTER","city":"DEKALB","zip":"60115","phone":"8157530125","facilityType":"DCC","dayAge":"6W TO 7Y","nightAge":"0","lang1":"ENGLISH","dayCap":115,"nightCap":0,"status":"License issued (IL)","lat":41.898212,"lon":-88.753404},{"id":"003902","name":"CARY METHODIST PRESCHOOL","street":"500 1ST ST","city":"CARY","zip":"60013","phone":"8476397655","facilityType":"DCC","dayAge":"2Y TO 6Y","nightAge":"0","lang1":"ENGLISH","dayCap":56,"nightCap":0,"status":"License issued (IL)","lat":42.214738,"lon":-88.238326},{"id":"004184","name":"CHICAGO HEIGHTS NAZARENE NURSERY SCHOOL","street":"699 WEST 8TH STREET","city":"CHICAGO HEIGHTS","zip":"60411","phone":"7084813210","facilityType":"DCC","dayAge":"6W TO 12Y","nightAge":"0","lang1":"ENGLISH","dayCap":165,"nightCap":0,"status":"Pending renewal application (RN)","lat":41.516978,"lon":-87.672725},{"id":"004215","name":"CHILDREN'S CENTER DAY CARE","street":"304 S RACE ST","city":"URBANA","zip":"61801","phone":"2173670842","facilityType":"DCC","dayAge":"15M TO 5Y","nightAge":"0","lang1":"ENGLISH","dayCap":64,"nightCap":0,"status":"License issued (IL)","lat":40.110639,"lon":-88.20882},{"id":"004352","name":"CHRISTOPHER HOUSE UPTOWN CHILD & DOM DEV","street":"4701 NORTH WINTHROP AVE.","city":"CHICAGO","zip":"60640","phone":"7737694540","facilityType":"DCC","dayAge":"6W TO 12Y","nightAge":"0","lang1":"CHINESE","dayCap":236,"nightCap":0,"status":"License issued (IL)","lat":41.967296,"lon":-87.657487},{"id":"004653","name":"COLLEGE OF LAKE COUNTY CHILD CARE CENTER","street":"19351 W WASHINGTON ST","city":"GRAYSLAKE","zip":"60030","phone":"8475432345","facilityType":"DCC","dayAge":"2Y TO 12Y","nightAge":"0","lang1":"ENGLISH","dayCap":56,"nightCap":0,"status":"License issued (IL)","lat":42.360505,"lon":-88.009882},{"id":"005240","name":"CRYSTAL LAKE MONTESSORI SCHOOL","street":"3013 S COUNTRY CLUB RD","city":"WOODSTOCK","zip":"60098","phone":"8153380013","facilityType":"DCC","dayAge":"15M TO 4Y","nightAge":"0","lang1":"ENGLISH","dayCap":48,"nightCap":0,"status":"License issued (IL)","lat":42.285554,"lon":-88.372781},{"id":"005365","name":"DALEY CHILD DEVELOPMENT CENTER - CCC","street":"7500 SOUTH PULASKI ROAD","city":"CHICAGO","zip":"60652","phone":"7738387561","facilityType":"DCC","dayAge":"2Y TO 10Y","nightAge":"0","lang1":"ENGLISH","dayCap":60,"nightCap":0,"status":"License issued (IL)","lat":41.756326,"lon":-87.722288},{"id":"005593","name":"MILESTONES EARLY LEARNING CENTER","street":"1207 SIX POINTS RD","city":"BLOOMINGTON","zip":"61701","phone":"3098294202","facilityType":"DCC","dayAge":"6W TO 12Y","nightAge":"0","lang1":"ENGLISH","dayCap":156,"nightCap":0,"status":"License issued (IL)","lat":40.459001,"lon":-89.008223},{"id":"005818","name":"DEVONSHIRE  CENTER PRE-SCHOOL","street":"4400 GREENWOOD","city":"SKOKIE","zip":"60076","phone":"8476741500","facilityType":"DCC","dayAge":"2Y TO 5Y","nightAge":"0","lang1":"ENGLISH","dayCap":80,"nightCap":0,"status":"License issued (IL)","lat":42.042631,"lon":-87.739415},{"id":"006667","name":"ERBA LAWRENCEVILLE HEAD START","street":"1503 13TH ST","city":"LAWRENCEVILLE","zip":"62439","phone":"6189435456","facilityType":"DCC","dayAge":"3Y TO 6Y","nightAge":"0","lang1":"ENGLISH","dayCap":20,"nightCap":0,"status":"License issued (IL)","lat":38.722841,"lon":-87.684939},{"id":"006815","name":"FAITH LUTHERAN COMMUNITY CHILD CARE CTR","street":"650 SCHOOL ST","city":"WASHINGTON","zip":"61571","phone":"3097459308","facilityType":"DCC","dayAge":"6W TO 12Y","nightAge":"0","lang1":"ENGLISH","dayCap":126,"nightCap":0,"status":"License issued (IL)","lat":40.696046,"lon":-89.474184},{"id":"007035","name":"FIRST BAPTIST CHURCH CHILD DEV CENTER","street":"820 ONTARIO ST","city":"OAK PARK","zip":"60302","phone":"7083831190","facilityType":"DCC","dayAge":"2Y TO 12Y","nightAge":"0","lang1":"ENGLISH","dayCap":86,"nightCap":0,"status":"License issued (IL)","lat":41.890246,"lon":-87.795595},{"id":"007044","name":"FIRST CONGREGATIONAL CHURCH PRESCHOOL","street":"1106 CHESTNUT STREET","city":"WESTERN SPRINGS","zip":"60558","phone":"7082464908","facilityType":"DCC","dayAge":"3Y TO 6Y","nightAge":"0","lang1":"ENGLISH","dayCap":57,"nightCap":0,"status":"License issued (IL)","lat":41.812397,"lon":-87.902747},{"id":"007048","name":"FIRST PRESBYTERIAN CH WEEKDAY NURS SCHL","street":"715 N CARLTON ST","city":"WHEATON","zip":"60187","phone":"6306685147","facilityType":"DCC","dayAge":"2Y TO 6Y","nightAge":"0","lang1":"ENGLISH","dayCap":70,"nightCap":0,"status":"License issued (IL)","lat":41.871176,"lon":-88.116589},{"id":"007056","name":"FIRST UNITED CHURCH NURSERY SCHOOL","street":"848 LAKE STREET","city":"OAK PARK","zip":"60301","phone":"7088484910","facilityType":"DCC","dayAge":"2Y TO 6Y","nightAge":"0","lang1":"ENGLISH","dayCap":110,"nightCap":0,"status":"License issued (IL)","lat":41.886984,"lon":-87.79962},{"id":"007058","name":"FIRST UNITED METHODIST CHURCH PRE-SCHOOL","street":"1903 EAST EUCLID","city":"ARLINGTON HEIGHTS","zip":"60004","phone":"8472555119","facilityType":"DCC","dayAge":"1Y TO 6Y","nightAge":"0","lang1":"ENGLISH","dayCap":114,"nightCap":0,"status":"License issued (IL)","lat":42.088092,"lon":-87.9597},{"id":"007819","name":"GENESEO DEVELOPMENT & GROWTH, INC. #2","street":"541 E NORTH ST","city":"GENESEO","zip":"61254","phone":"3099445024","facilityType":"DCC","dayAge":"6W TO 12Y","nightAge":"0","lang1":"ENGLISH","dayCap":130,"nightCap":0,"status":"License issued (IL)","lat":41.450615,"lon":-90.147183},{"id":"008192","name":"GRACE CHILD CARE CENTER","street":"1718 AVALON","city":"JOLIET","zip":"60435","phone":"8157448760","facilityType":"DCC","dayAge":"6W TO 5Y","nightAge":"0","lang1":"ENGLISH","dayCap":48,"nightCap":0,"status":"License issued (IL)","lat":41.534413,"lon":-88.123264},{"id":"071911","name":"VLG/GLENDL HGTS PRKS & RCRTN DPT PRE-SCH","street":"250 CIVIC CENTER PLZ","city":"GLENDALE HTS","zip":"60139","phone":"6302606060","facilityType":"DCC","dayAge":"3Y TO 6Y","nightAge":"0","lang1":"ENGLISH","dayCap":36,"nightCap":0,"status":"License issued (IL)","lat":41.920171,"lon":-88.07621},{"id":"075226","name":"SIUE E. ST. LOUIS PROJECT SUCCESS","street":"601 JAMES R THOMPSON BLVD # D","city":"E SAINT LOUIS","zip":"62201","phone":"6184828334","facilityType":"DCC","dayAge":"5Y TO 14Y","nightAge":"5Y TO 14Y","lang1":"ENGLISH","dayCap":79,"nightCap":79,"status":"Pending renewal application (RN)","lat":38.621366,"lon":-90.162061},{"id":"075319","name":"LAKE COOK KINDER CARE","street":"1025 E LAKE COOK RD","city":"WHEELING","zip":"60090","phone":"8475414406","facilityType":"DCC","dayAge":"6W TO 12Y","nightAge":"0","lang1":"ENGLISH","dayCap":59,"nightCap":0,"status":"Pending renewal application (RN)","lat":42.153082,"lon":-87.940538},{"id":"080689","name":"HOWARD AND EVANSTON COMMUNITY CENTER","street":"7510 N ASHLAND AVE","city":"CHICAGO","zip":"60626","phone":"7737647610","facilityType":"DCC","dayAge":"6W TO 6Y","nightAge":"0","lang1":"ENGLISH","dayCap":128,"nightCap":0,"status":"License issued (IL)","lat":42.018142,"lon":-87.671269},{"id":"080758","name":"MONTESSORI CHILDRENS ACADEMY","street":"706 E PARK BLVD","city":"VILLA PARK","zip":"60181","phone":"6308324423","facilityType":"DCC","dayAge":"6W TO 6Y","nightAge":"0","lang1":"ENGLISH","dayCap":104,"nightCap":0,"status":"License issued (IL)","lat":41.885947,"lon":-87.9628},{"id":"082912","name":"PILL HILL DEVELOPMENT CENTER","street":"8802 S STONY ISLAND AVE","city":"CHICAGO","zip":"60617","phone":"7732216800","facilityType":"DCC","dayAge":"2Y TO 12Y","nightAge":"0","lang1":"ENGLISH","dayCap":65,"nightCap":0,"status":"Pending renewal application (RN)","lat":41.734997,"lon":-87.585676},{"id":"084017","name":"KINDERCARE LEARNING CTR 300983","street":"451 CREEKSIDE DR","city":"VERNON HILLS","zip":"60061","phone":"8476803835","facilityType":"DCC","dayAge":"6W TO 12Y","nightAge":"0","lang1":"ENGLISH","dayCap":127,"nightCap":0,"status":"License issued (IL)","lat":42.230505,"lon":-87.976457},{"id":"084776","name":"KINDERCARE LEARNING CTR 301087","street":"2410 E WASHINGTON ST","city":"BLOOMINGTON","zip":"61704","phone":"3096627033","facilityType":"DCC","dayAge":"6W TO 12Y","nightAge":"0","lang1":"ENGLISH","dayCap":123,"nightCap":0,"status":"License issued (IL)","lat":40.479971,"lon":-88.947764},{"id":"086539","name":"LITTLE ANGELS DAY CARE INC","street":"6407 N MAPLEWOOD AVE","city":"CHICAGO","zip":"60645","phone":"7733389770","facilityType":"DCC","dayAge":"6W TO 5Y","nightAge":"0","lang1":"ENGLISH","dayCap":50,"nightCap":0,"status":"Pending renewal application (RN)","lat":41.997895,"lon":-87.693473},{"id":"087548","name":"CARROT PATCH DAY CARE CENTER COLUMBIA","street":"252 VETERANS PKWY","city":"COLUMBIA","zip":"62236","phone":"6182814161","facilityType":"DCC","dayAge":"6W TO 12Y","nightAge":"0","lang1":"ENGLISH","dayCap":121,"nightCap":0,"status":"License issued (IL)","lat":38.434618,"lon":-90.20532},{"id":"090431","name":"KANEVILLE COMMUNITY CHILD CENTER","street":"2S101 HARTER RD","city":"KANEVILLE","zip":"60144","phone":"6305572424","facilityType":"DCC","dayAge":"2Y TO 12Y","nightAge":"0","lang1":"ENGLISH","dayCap":56,"nightCap":0,"status":"License issued (IL)","lat":41.83527,"lon":-88.522024},{"id":"287368","name":"LAMBS OF GOD CHILDCARE CENTER","street":"60 N AVENUE A","city":"CANTON","zip":"61520","phone":"3096471972","facilityType":"DCC","dayAge":"6W TO 12Y","nightAge":"0","lang1":"ENGLISH","dayCap":111,"nightCap":0,"status":"License issued (IL)","lat":40.556805,"lon":-90.036851},{"id":"289132","name":"LITTLE BLESSINGS PRESCHOOL OF ALLELUIA!","street":"4055 BOOK RD","city":"NAPERVILLE","zip":"60564","phone":"6309049898","facilityType":"DCC","dayAge":"2Y TO 6Y","nightAge":"0","lang1":"ENGLISH","dayCap":196,"nightCap":0,"status":"Pending renewal application (RN)","lat":41.694468,"lon":-88.186015},{"id":"290081","name":"HAPPI TIME DAY CARE","street":"1010 STRATFORD DRIVE","city":"CHAMPAIGN","zip":"61821","phone":"2173528387","facilityType":"DCC","dayAge":"15M TO 12Y","nightAge":"0","lang1":"ENGLISH","dayCap":99,"nightCap":0,"status":"License issued (IL)","lat":40.105109,"lon":-88.291638},{"id":"290417","name":"THE LITTLE LAMB'S DAYCARE","street":"311 US ROUTE 150","city":"OAKWOOD","zip":"61858","phone":"2173544996","facilityType":"DCC","dayAge":"6W TO 12Y","nightAge":"0","lang1":"ENGLISH","dayCap":77,"nightCap":0,"status":"License issued (IL)","lat":40.115649,"lon":-87.783237},{"id":"290522","name":"ST. PETER'S LITTLE SAINTS PRE-SCHOOL","street":"43W301 PLANK ROAD","city":"HAMPSHIRE","zip":"60140","phone":"8474645134","facilityType":"DCC","dayAge":"3Y TO 6Y","nightAge":"0","lang1":"ENGLISH","dayCap":20,"nightCap":0,"status":"License issued (IL)","lat":42.078425,"lon":-88.520184},{"id":"291674","name":"ERBA BRIDGEPORT/SUMNER HEAD START","street":"832 MADISON ST","city":"BRIDGEPORT","zip":"62417","phone":"2179233113","facilityType":"DCC","dayAge":"3Y TO 5Y","nightAge":"0","lang1":"ENGLISH","dayCap":17,"nightCap":0,"status":"License issued (IL)","lat":38.710266,"lon":-87.764577},{"id":"292309","name":"BRIGHT BEGINNINGS CHILD CARE & DEV CTR","street":"124 EAST PLUMMER BLVD","city":"CHATHAM","zip":"62629","phone":"2174836833","facilityType":"DCC","dayAge":"6W TO 12Y","nightAge":"0","lang1":"ENGLISH","dayCap":113,"nightCap":0,"status":"License issued (IL)","lat":39.685867,"lon":-89.704402},{"id":"293905","name":"DARIEN PARK DISTRICT","street":"7301 FAIRVIEW AVE","city":"DARIEN","zip":"60561","phone":"6309686400","facilityType":"DCC","dayAge":"2Y TO 6Y","nightAge":"0","lang1":"ENGLISH","dayCap":99,"nightCap":0,"status":"License issued (IL)","lat":41.754986,"lon":-87.993294},{"id":"299501","name":"MONTESSORI CHILDREN'S CENTRE","street":"3 YOUNT CT","city":"BLOOMINGTON","zip":"61704","phone":"3096638736","facilityType":"DCC","dayAge":"3Y TO 6Y","nightAge":"0","lang1":"ENGLISH","dayCap":60,"nightCap":0,"status":"License issued (IL)","lat":40.486586,"lon":-88.944588},{"id":"300085","name":"FLORECIENTE HEAD START CENTER","street":"350 3RD ST","city":"MOLINE","zip":"61265","phone":"3097979819","facilityType":"DCC","dayAge":"3Y TO 5Y","nightAge":"0","lang1":"ENGLISH","dayCap":40,"nightCap":0,"status":"License issued (IL)","lat":41.506251,"lon":-90.533585},{"id":"300783","name":"RAINBOW DAY CARE","street":"3250 W IRVING PARK RD","city":"CHICAGO","zip":"60618","phone":"7734788182","facilityType":"DCC","dayAge":"6W TO 5Y","nightAge":"0","lang1":"ENGLISH","dayCap":89,"nightCap":0,"status":"Pending renewal application (RN)","lat":41.953954,"lon":-87.709631},{"id":"305673","name":"LEARNING TREE PRESCHOOL & CCC","street":"1314 10TH ST","city":"SILVIS","zip":"61282","phone":"3097929414","facilityType":"DCC","dayAge":"6W TO 12Y","nightAge":"0","lang1":"ENGLISH","dayCap":130,"nightCap":0,"status":"License issued (IL)","lat":41.492882,"lon":-90.41565},{"id":"312279","name":"PARENT AND CHILD TOGETHER FOR WEST CENTR","street":"2090 HIGHWAY 24","city":"CAMP POINT","zip":"62320","phone":"2175936777","facilityType":"DCC","dayAge":"6W TO 6Y","nightAge":"0","lang1":"ENGLISH","dayCap":40,"nightCap":0,"status":"License issued (IL)","lat":40.038508,"lon":-91.110741},{"id":"313073","name":"LINCOLN PARK PREPARATORY","street":"108 W GERMANIA PL","city":"CHICAGO","zip":"60610","phone":"3124829009","facilityType":"DCC","dayAge":"2Y TO 6Y","nightAge":"0","lang1":"ENGLISH","dayCap":72,"nightCap":0,"status":"License issued (IL)","lat":41.910484,"lon":-87.631773},{"id":"315737","name":"LITTLE FRIENDS DAY CARE CENTER","street":"910 S 8TH","city":"SPRINGFIELD","zip":"62703","phone":"2175221544","facilityType":"DCC","dayAge":"6W TO 6Y","nightAge":"0","lang1":"ENGLISH","dayCap":41,"nightCap":0,"status":"License issued (IL)","lat":39.792526,"lon":-89.645174},{"id":"322304","name":"KINDERCARE LEARNING CENTER #301534","street":"501 ROLLS RD","city":"ALGONQUIN","zip":"60102","phone":"8478548545","facilityType":"DCC","dayAge":"6W TO 12Y","nightAge":"0","lang1":"ENGLISH","dayCap":164,"nightCap":0,"status":"License issued (IL)","lat":42.170391,"lon":-88.333351},{"id":"326598","name":"REY GONZALEZ CHILDREN AND FAMILY CENTER","street":"3050 E 92ND ST","city":"CHICAGO","zip":"60617","phone":"7737219311","facilityType":"DCC","dayAge":"15M TO 12Y","nightAge":"0","lang1":"ENGLISH","dayCap":247,"nightCap":0,"status":"Pending renewal application (RN)","lat":41.728325,"lon":-87.549471},{"id":"445076","name":"S7HD/HEAD START JONESBORO","street":"309 COOK AVE","city":"JONESBORO","zip":"62952","phone":"6186146801","facilityType":"DCC","dayAge":"3Y TO 6Y","nightAge":"0","lang1":"ENGLISH","dayCap":31,"nightCap":0,"status":"Pending renewal application (RN)","lat":37.450054,"lon":-89.274799},{"id":"447007","name":"S7HD/HEAD START GOLCONDA","street":"125 STATE HIGHWAY 146 W","city":"GOLCONDA","zip":"62938","phone":"6186342297","facilityType":"DCC","dayAge":"6W TO 5Y","nightAge":"0","lang1":"ENGLISH","dayCap":26,"nightCap":0,"status":"License issued (IL)","lat":37.365519,"lon":-88.513403},{"id":"448433","name":"MS. NICKI'S CHILDCARE INC.","street":"422 S GOVERNORS HWY STE 12","city":"PEOTONE","zip":"60468","phone":"7082586800","facilityType":"DCC","dayAge":"6W TO 12Y","nightAge":"0","lang1":"ENGLISH","dayCap":105,"nightCap":0,"status":"License issued (IL)","lat":41.328755,"lon":-87.786014},{"id":"449196","name":"KINDERCARE LEARNING CENTER #000638","street":"925 E NERGE RD","city":"ROSELLE","zip":"60172","phone":"6309801041","facilityType":"DCC","dayAge":"6W TO 13Y","nightAge":"0","lang1":"ENGLISH","dayCap":114,"nightCap":0,"status":"License issued (IL)","lat":41.998789,"lon":-88.058672},{"id":"449201","name":"KINDERCARE LEARNING CTR #000757","street":"2350 BODE RD","city":"SCHAUMBURG","zip":"60194","phone":"8478840810","facilityType":"DCC","dayAge":"6W TO 12Y","nightAge":"0","lang1":"ENGLISH","dayCap":141,"nightCap":0,"status":"Pending renewal application (RN)","lat":42.026657,"lon":-88.114049},{"id":"449215","name":"KINDERCARE LEARNING CENTER 000574","street":"14632 JOHN HUMPHREY DR","city":"ORLAND PARK","zip":"60462","phone":"7083494990","facilityType":"DCC","dayAge":"6W TO 12Y","nightAge":"0","lang1":"ENGLISH","dayCap":136,"nightCap":0,"status":"License issued (IL)","lat":41.6243,"lon":-87.851392},{"id":"449527","name":"THE BIG BARN PRESCHOOL","street":"888 S ROSELLE RD","city":"SCHAUMBURG","zip":"60193","phone":"8478953257","facilityType":"DCC","dayAge":"2Y TO 6Y","nightAge":"0","lang1":"ENGLISH","dayCap":33,"nightCap":0,"status":"Pending renewal application (RN)","lat":42.011121,"lon":-88.08011},{"id":"451100","name":"KINDER CARE LEARNING CENTERS 000896","street":"7450 WOODWARD AVE","city":"WOODRIDGE","zip":"60517","phone":"6308524485","facilityType":"DCC","dayAge":"6W TO 12Y","nightAge":"0","lang1":"ENGLISH","dayCap":94,"nightCap":0,"status":"License issued (IL)","lat":41.751375,"lon":-88.031112},{"id":"451102","name":"KINDER CARE LEARNING CENTERS 000881","street":"7040 WOODWARD AVE","city":"WOODRIDGE","zip":"60517","phone":"6308522611","facilityType":"DCC","dayAge":"6W TO 12Y","nightAge":"0","lang1":"ENGLISH","dayCap":112,"nightCap":0,"status":"License issued (IL)","lat":41.758798,"lon":-88.031361},{"id":"451103","name":"KINDER CARE LEARNING CENTERS 000435","street":"1640 EISENHOWER LN","city":"LISLE","zip":"60532","phone":"6309641944","facilityType":"DCC","dayAge":"6W TO 12Y","nightAge":"0","lang1":"ENGLISH","dayCap":108,"nightCap":0,"status":"Pending renewal application (RN)","lat":41.786207,"lon":-88.083905},{"id":"452074","name":"KINDERCARE LEARNING CENTER 000073","street":"130 BARBERS CORNER RD","city":"BOLINGBROOK","zip":"60440","phone":"6307390129","facilityType":"DCC","dayAge":"6W TO 12Y","nightAge":"0","lang1":"ENGLISH","dayCap":142,"nightCap":0,"status":"Pending renewal application (RN)","lat":41.7099,"lon":-88.067228},{"id":"452567","name":"BRENDA'S KIDS CLUB DAY CARE CENTER INC","street":"3552 E 118TH ST","city":"CHICAGO","zip":"60617","phone":"7736460007","facilityType":"DCC","dayAge":"6W TO 12Y","nightAge":"6W TO 12Y","lang1":"ENGLISH","dayCap":134,"nightCap":134,"status":"License issued (IL)","lat":41.681002,"lon":-87.537304},{"id":"452962","name":"LIVING WITNESS LEARNING DAYCARE CENTER","street":"4159 N LARAMIE AVE","city":"CHICAGO","zip":"60641","phone":"7734271011","facilityType":"DCC","dayAge":"2Y TO 12Y","nightAge":"0","lang1":"ENGLISH","dayCap":25,"nightCap":0,"status":"License issued (IL)","lat":41.956624,"lon":-87.757181},{"id":"453348","name":"THE GODDARD SCHOOL OF ELGIN","street":"2496 BUSHWOOD DR","city":"ELGIN","zip":"60124","phone":"8477830083","facilityType":"DCC","dayAge":"6W TO 8Y","nightAge":"0","lang1":"ENGLISH","dayCap":147,"nightCap":0,"status":"License issued (IL)","lat":42.094157,"lon":-88.336815},{"id":"455883","name":"MAMI'S BUMBLE BEE DAYCARE CORP","street":"9725 S COMMERCIAL AVE","city":"CHICAGO","zip":"60617","phone":"7732217692","facilityType":"DCC","dayAge":"6W TO 12Y","nightAge":"6Y TO 12Y","lang1":"ENGLISH","dayCap":87,"nightCap":32,"status":"License issued (IL)","lat":41.718645,"lon":-87.550948},{"id":"456029","name":"NEW HORIZONS LEARNING CENTER AND DAYCARE","street":"145 E DIVISION ST","city":"KEWANEE","zip":"61443","phone":"3098523255","facilityType":"DCC","dayAge":"15M TO 12Y","nightAge":"0","lang1":"ENGLISH","dayCap":77,"nightCap":0,"status":"License issued (IL)","lat":41.234497,"lon":-89.924964},{"id":"458125","name":"SHELBY SCHOLARS DAYCARE INC","street":"3308 W 137TH ST","city":"ROBBINS","zip":"60472","phone":"7083718431","facilityType":"DCC","dayAge":"6W TO 6Y","nightAge":"0","lang1":"ENGLISH","dayCap":48,"nightCap":0,"status":"Pending renewal application (RN)","lat":41.644316,"lon":-87.701858},{"id":"459270","name":"MORTON COLLEGE CHILD LEARNING CENTER","street":"3801 S CENTRAL AVE","city":"CICERO","zip":"60804","phone":"7086568000","facilityType":"DCC","dayAge":"3Y TO 6Y","nightAge":"0","lang1":"ENGLISH","dayCap":40,"nightCap":0,"status":"Pending renewal application (RN)","lat":41.823557,"lon":-87.763074},{"id":"459483","name":"IMMANUEL LUTHERAN CHURCH","street":"1850 CHESTNUT AVE","city":"GLENVIEW","zip":"60025","phone":"8477246092","facilityType":"DCC","dayAge":"6W TO 10Y","nightAge":"0","lang1":"ENGLISH","dayCap":115,"nightCap":0,"status":"Pending renewal application (RN)","lat":42.087361,"lon":-87.803399},{"id":"450579","name":"BRIGHT HORIZONS FAMILY SOLUTIO","street":"1715 W ALTA RD","city":"PEORIA","zip":"61615","phone":"3092439000","facilityType":"DCC","dayAge":"6W TO 12Y","nightAge":"0","lang1":"ENGLISH","dayCap":178,"nightCap":0,"status":"License issued (IL)","lat":40.813115,"lon":-89.618969},