[{"id": "001330", "name": "ALTGELD I EARLY LEARNING CENTER", "street": "13107 S INGLESIDE", "city": "CHICAGO", "zip": "60827", "phone": "7734683055", "facilityType": "DCC", "dayAge": "6W TO 5Y", "nightAge": "0", "lang1": "ENGLISH", "dayCap": 166, "nightCap": 0, "status": "License issued (IL)", "lat": 41.657187, "lon": -87.599307}, {"id": "009830", "name": "REBECCA K. CROWN CHILD DEVELOPMENT CTR", "street": "7601 S PHILLIPS AVE", "city": "CHICAGO", "zip": "60649", "phone": "7737310444", "facilityType": "DCC", "dayAge": "15M TO 12Y", "nightAge": "0", "lang1": "ENGLISH", "dayCap": 104, "nightCap": 0, "status": "Pending renewal application (RN)", "lat": 41.757127, "lon": -87.565048}, {"id": "015315", "name": "NORTH PARK CHURCH COOPERATIVE PRESCHOOL", "street": "5250 N CHRISTIANA AVE", "city": "CHICAGO", "zip": "60625", "phone": "7734630055", "facilityType": "DCC", "dayAge": "2Y TO 6Y", "nightAge": "0", "lang1": "ENGLISH", "dayCap": 20, "nightCap": 0, "status": "License issued (IL)", "lat": 41.976823, "lon": -87.71243}, {"id": "016674", "name": "BETTER BOYS FOUNDATION KIDLAB", "street": "1512 S PULASKI RD", "city": "CHICAGO", "zip": "60623", "phone": "7735427300", "facilityType": "DCC", "dayAge": "5Y TO 12Y", "nightAge": "0", "lang1": "ENGLISH", "dayCap": 90, "nightCap": 0, "status": "Pending renewal application (RN)", "lat": 41.860323, "lon": -87.725073}, {"id": "017891", "name": "SAINT CHRYSOSTOM'S DAY SCHOOL", "street": "1424 NORTH DEARBORN", "city": "CHICAGO", "zip": "60610", "phone": "3126423422", "facilityType": "DCC", "dayAge": "2Y TO 5Y", "nightAge": "0", "lang1": "ENGLISH", "dayCap": 101, "nightCap": 0, "status": "Pending renewal application (RN)", "lat": 41.908273, "lon": -87.630194}, {"id": "020373", "name": "FOURTH CHURCH DAY SCHOOL", "street": "126 EAST CHESTNUT STREET", "city": "CHICAGO", "zip": "60611", "phone": "3126402579", "facilityType": "DCC", "dayAge": "2Y TO 5Y", "nightAge": "0", "lang1": "ENGLISH", "dayCap": 32, "nightCap": 0, "status": "Pending renewal application (RN)", "lat": 41.898427, "lon": -87.62524}, {"id": "022815", "name": "JCYS IRIS & STEVEN PODOLSKY FAMILY CT", "street": "2112 W LAWRENCE AVE", "city": "CHICAGO", "zip": "60625", "phone": "7732812533", "facilityType": "DCC", "dayAge": "6W TO 5Y", "nightAge": "0", "lang1": "ENGLISH", "dayCap": 102, "nightCap": 0, "status": "License issued (IL)", "lat": 41.96877, "lon": -87.68218}, {"id": "029780", "name": "CHICAGO URBAN DAY SCHOOL", "street": "1248 W 69TH ST", "city": "CHICAGO", "zip": "60636", "phone": "7734833555", "facilityType": "DCC", "dayAge": "6W TO 12Y", "nightAge": "0", "lang1": "ENGLISH", "dayCap": 81, "nightCap": 0, "status": "License issued (IL)", "lat": 41.768732, "lon": -87.655507}, {"id": "044434", "name": "NORTHSHORE ACADEMY FOR CHILDREN", "street": "1754 W DEVON AVE # 56", "city": "CHICAGO", "zip": "60660", "phone": "7737434744", "facilityType": "DCC", "dayAge": "2Y TO 6Y", "nightAge": "0", "lang1": "ENGLISH", "dayCap": 24, "nightCap": 0, "status": "Pending renewal application (RN)", "lat": 41.99807, "lon": -87.674019}, {"id": "057538", "name": "FIFTH CITY CHILD DEVEL INSTITUTE INCORP.", "street": "3411 W 5TH AVE BLDG C", "city": "CHICAGO", "zip": "60624", "phone": "7738268686", "facilityType": "DCC", "dayAge": "2Y TO 12Y", "nightAge": "0", "lang1": "ENGLISH", "dayCap": 88, "nightCap": 0, "status": "License issued (IL)", "lat": 41.876926, "lon": -87.711013}, {"id": "064973", "name": "BUSY BUMBLE BEE ACADEMY", "street": "6450 S COTTAGE GROVE AVE", "city": "CHICAGO", "zip": "60637", "phone": "7736439346", "facilityType": "DCC", "dayAge": "6W TO 12Y", "nightAge": "0", "lang1": "ENGLISH", "dayCap": 95, "nightCap": 0, "status": "Pending renewal application (RN)", "lat": 41.777668, "lon": -87.605945}, {"id": "065175", "name": "LOOP LEARNING CENTER INC", "street": "2001 S MICHIGAN AVE STE 3", "city": "CHICAGO", "zip": "60616", "phone": "3122258828", "facilityType": "DCC", "dayAge": "6W TO 12Y", "nightAge": "0", "lang1": "ENGLISH", "dayCap": 165, "nightCap": 0, "status": "License issued (IL)", "lat": 41.855435, "lon": -87.623799}, {"id": "100037", "name": "WEE CARE PRESCHOOL", "street": "2816 N PINE GROVE AVE", "city": "CHICAGO", "zip": "60657", "phone": "7739292273", "facilityType": "DCC", "dayAge": "6W TO 6Y", "nightAge": "0", "lang1": "ENGLISH", "dayCap": 90, "nightCap": 0, "status": "Pending renewal application (RN)", "lat": 41.933442, "lon": -87.641452}, {"id": "198494", "name": "LITTLE LEARNER'S DAY CARE INC.", "street": "6255 S MAYFIELD AVE", "city": "CHICAGO", "zip": "60638", "phone": "7735815541", "facilityType": "DCC", "dayAge": "13M TO 12Y", "nightAge": "0", "lang1": "ENGLISH", "dayCap": 144, "nightCap": 0, "status": "Pending renewal application (RN)", "lat": 41.778315, "lon": -87.76899}, {"id": "207953", "name": "TAYLOR CENTER FOR NEW EXPERIENCES", "street": "1633 NORTH HAMLIN", "city": "CHICAGO", "zip": "60647", "phone": "7732278551", "facilityType": "DCC", "dayAge": "2Y TO 5Y", "nightAge": "0", "lang1": "ENGLISH", "dayCap": 76, "nightCap": 0, "status": "License issued (IL)", "lat": 41.910769, "lon": -87.721391}, {"id": "233880", "name": "UPSHAW, HATTIE R", "street": "1054 N KEDZIE AVE APT 1", "city": "CHICAGO", "zip": "60651", "phone": "7734073415", "facilityType": "DCH", "dayAge": "6W TO 12Y", "nightAge": "0", "lang1": "ENGLISH", "dayCap": 8, "nightCap": 0, "status": "License issued (IL)", "lat": 41.90043, "lon": -87.70679}, {"id": "235988", "name": "WATT, DEBRA A", "street": "7206 S EUCLID AVE", "city": "CHICAGO", "zip": "60649", "phone": "7739479979", "facilityType": "DCH", "dayAge": "6W TO 12Y", "nightAge": "6W TO 12Y", "lang1": "ENGLISH", "dayCap": 8, "nightCap": 8, "status": "License issued (IL)", "lat": 41.764099, "lon": -87.57817}, {"id": "237324", "name": "THE LINCOLN PARK PRESCHOOL", "street": "2301 N CLARK ST FL 1ST", "city": "CHICAGO", "zip": "60614", "phone": "7736650110", "facilityType": "DCC", "dayAge": "15M TO 6Y", "nightAge": "0", "lang1": "ENGLISH", "dayCap": 68, "nightCap": 0, "status": "License issued (IL)", "lat": 41.92385, "lon": -87.639328}, {"id": "242623", "name": "LOYOLA UNIVERSITY CHICAGO PRESCHOOL/DC", "street": "1052 W LOYOLA AVE", "city": "CHICAGO", "zip": "60626", "phone": "7085083440", "facilityType": "DCC", "dayAge": "2Y TO 6Y", "nightAge": "0", "lang1": "ENGLISH", "dayCap": 45, "nightCap": 0, "status": "Pending renewal application (RN)", "lat": 42.001626, "lon": -87.657725}, {"id": "263652", "name": "WIMBERLY, NEDRA L", "street": "6350 S EBERHART AVE", "city": "CHICAGO", "zip": "60637", "phone": "7733249142", "facilityType": "DCH", "dayAge": "6W TO 12Y", "nightAge": "6W TO 12Y", "lang1": "ENGLISH", "dayCap": 8, "nightCap": 8, "status": "License issued (IL)", "lat": 41.77925, "lon": -87.613259}, {"id": "266436", "name": "BLYTHE, DELISA A", "street": "9930 S ABERDEEN ST", "city": "CHICAGO", "zip": "60643", "phone": "7732392366", "facilityType": "DCH", "dayAge": "6W TO 12Y", "nightAge": "6W TO 12Y", "lang1": "ENGLISH", "dayCap": 8, "nightCap": 8, "status": "License issued (IL)", "lat": 41.71314, "lon": -87.65037}, {"id": "269055", "name": "CALDWELL, ARNITA", "street": "10420 S HOXIE AVE", "city": "CHICAGO", "zip": "60617", "phone": "7738705486", "facilityType": "DCH", "dayAge": "6W TO 12Y", "nightAge": "6W TO 12Y", "lang1": "ENGLISH", "dayCap": 8, "nightCap": 8, "status": "License issued (IL)", "lat": 41.706001, "lon": -87.560931}, {"id": "275723", "name": "KALINA PRESCHOOL & KINDERGARTEN", "street": "4100 N CALIFORNIA AVE", "city": "CHICAGO", "zip": "60618", "phone": "7736048345", "facilityType": "DCC", "dayAge": "2Y TO 6Y", "nightAge": "0", "lang1": "ENGLISH", "dayCap": 36, "nightCap": 0, "status": "License issued (IL)", "lat": 41.955843, "lon": -87.698373}, {"id": "275772", "name": "KID'Z COLONY DAY CARE, INC.", "street": "6287 S ARCHER AVE # 95", "city": "CHICAGO", "zip": "60638", "phone": "7737678522", "facilityType": "DCC", "dayAge": "13M TO 12Y", "nightAge": "0", "lang1": "ENGLISH", "dayCap": 134, "nightCap": 0, "status": "Pending renewal application (RN)", "lat": 41.793297, "lon": -87.777712}, {"id": "285192", "name": "MUNIZ, DEBBIE J", "street": "1650 N NATOMA AVE", "city": "CHICAGO", "zip": "60707", "phone": "7737165025", "facilityType": "DCH", "dayAge": "6W TO 12Y", "nightAge": "0", "lang1": "ENGLISH", "dayCap": 8, "nightCap": 0, "status": "License issued (IL)", "lat": 41.910236, "lon": -87.791233}, {"id": "285955", "name": "NEW BEGINNING DAY CARE", "street": "5445 W. NORTH AVENUE", "city": "CHICAGO", "zip": "60639", "phone": "7733855365", "facilityType": "DCC", "dayAge": "6W TO 12Y", "nightAge": "0", "lang1": "ENGLISH", "dayCap": 133, "nightCap": 0, "status": "Pending renewal application (RN)", "lat": 41.909361, "lon": -87.762393}, {"id": "295974", "name": "CHICAGO YOUTH CENTERS DOROTHY GAUTREAUX", "street": "975 E 132ND ST", "city": "CHICAGO", "zip": "60827", "phone": "7732911000", "facilityType": "DCC", "dayAge": "15M TO 5Y", "nightAge": "0", "lang1": "ENGLISH", "dayCap": 64, "nightCap": 0, "status": "License issued (IL)", "lat": 41.655845, "lon": -87.599532}, {"id": "298112", "name": "GRIFFIN, TAWNYA M", "street": "637 N SAWYER AVE", "city": "CHICAGO", "zip": "60624", "phone": "7738583313", "facilityType": "DCH", "dayAge": "6W TO 12Y", "nightAge": "6W TO 12Y", "lang1": "ENGLISH", "dayCap": 8, "nightCap": 8, "status": "License issued (IL)", "lat": 41.892575, "lon": -87.70761}, {"id": "305353", "name": "MASON-CLARK, PHYLLIS D", "street": "10219 S LOWE AVE", "city": "CHICAGO", "zip": "60628", "phone": "7737192949", "facilityType": "DCH", "dayAge": "6W TO 12Y", "nightAge": "6W TO 12Y", "lang1": "ENGLISH", "dayCap": 8, "nightCap": 8, "status": "License issued (IL)", "lat": 41.70851, "lon": -87.639156}, {"id": "317258", "name": "COLLINS, BELINDA J", "street": "4855 N KENMORE AVE # 1S", "city": "CHICAGO", "zip": "60640", "phone": "3127236398", "facilityType": "DCH", "dayAge": "6W TO 12Y", "nightAge": "6W TO 12Y", "lang1": "ENGLISH", "dayCap": 8, "nightCap": 7, "status": "Pending renewal application (RN)", "lat": 41.97053, "lon": -87.656177}, {"id": "328016", "name": "RONZIO, JOELLYN C", "street": "3111 S WELLS ST", "city": "CHICAGO", "zip": "60616", "phone": "3123435106", "facilityType": "DCH", "dayAge": "6W TO 12Y", "nightAge": "6W TO 12Y", "lang1": "ENGLISH", "dayCap": 8, "nightCap": 8, "status": "License issued (IL)", "lat": 41.837985, "lon": -87.632801}, {"id": "328534", "name": "BRIZE, MARY D", "street": "5435 W IOWA ST", "city": "CHICAGO", "zip": "60651", "phone": "7733787202", "facilityType": "DCH", "dayAge": "6W TO 12Y", "nightAge": "6W TO 12Y", "lang1": "ENGLISH", "dayCap": 8, "nightCap": 4, "status": "License issued (IL)", "lat": 41.896649, "lon": -87.761742}, {"id": "329861", "name": "FRAYZIER, KNEKOL M", "street": "1101 N LOCKWOOD AVE", "city": "CHICAGO", "zip": "60651", "phone": "3126873451", "facilityType": "DCH", "dayAge": "6W TO 12Y", "nightAge": "6W TO 12Y", "lang1": "ENGLISH", "dayCap": 8, "nightCap": 5, "status": "License issued (IL)", "lat": 41.90045, "lon": -87.758122}, {"id": "333036", "name": "BRACEY, SENORITIE B", "street": "4356 S BERKELEY AVE", "city": "CHICAGO", "zip": "60653", "phone": "7739881081", "facilityType": "GDC", "dayAge": "3Y TO 12Y", "nightAge": "0", "lang1": "ENGLISH", "dayCap": 12, "nightCap": 0, "status": "License issued (IL)", "lat": 41.815707, "lon": -87.600686}, {"id": "337416", "name": "KNIGHT, RUBY", "street": "11326 S PEORIA ST", "city": "CHICAGO", "zip": "60643", "phone": "7739958287", "facilityType": "DCH", "dayAge": "0  TO 12Y", "nightAge": "0  TO 12Y", "lang1": "ENGLISH", "dayCap": 8, "nightCap": 8, "status": "License issued (IL)", "lat": 41.687898, "lon": -87.644747}, {"id": "340446", "name": "WHITSETT, LORETTA D", "street": "1428 W SHERWIN AVE", "city": "CHICAGO", "zip": "60626", "phone": "7734068979", "facilityType": "DCH", "dayAge": "6W TO 12Y", "nightAge": "6W TO 12Y", "lang1": "ENGLISH", "dayCap": 8, "nightCap": 8, "status": "License issued (IL)", "lat": 42.015038, "lon": -87.66697}, {"id": "344859", "name": "INGRAM, MATTIE L", "street": "13102 S CORLISS AVE", "city": "CHICAGO", "zip": "60827", "phone": "7735682325", "facilityType": "DCH", "dayAge": "6W TO 12Y", "nightAge": "6W TO 12Y", "lang1": "ENGLISH", "dayCap": 3, "nightCap": 3, "status": "License issued (IL)", "lat": 41.65712, "lon": -87.602412}, {"id": "347059", "name": "BURGESS, IRENE V", "street": "1335 W 90TH ST", "city": "CHICAGO", "zip": "60620", "phone": "7738810840", "facilityType": "DCH", "dayAge": "6W TO 12Y", "nightAge": "6W TO 12Y", "lang1": "ENGLISH", "dayCap": 8, "nightCap": 8, "status": "License issued (IL)", "lat": 41.730356, "lon": -87.656968}, {"id": "348611", "name": "ALL DAY MONTESSORI", "street": "1819 W 99TH ST", "city": "CHICAGO", "zip": "60643", "phone": "7732398248", "facilityType": "DCC", "dayAge": "15M TO 3Y", "nightAge": "0", "lang1": "ENGLISH", "dayCap": 47, "nightCap": 0, "status": "License issued (IL)", "lat": 41.713828, "lon": -87.667825}, {"id": "350063", "name": "WALKER, ANGELA", "street": "2732 E 76TH ST", "city": "CHICAGO", "zip": "60649", "phone": "7737213228", "facilityType": "DCH", "dayAge": "6W TO 12Y", "nightAge": "6W TO 12Y", "lang1": "ENGLISH", "dayCap": 8, "nightCap": 8, "status": "License issued (IL)", "lat": 41.757599, "lon": -87.557674}, {"id": "350065", "name": "KNOX, CAROLYN V", "street": "5600 S KING DR APT 2F", "city": "CHICAGO", "zip": "60637", "phone": "3129345447", "facilityType": "DCH", "dayAge": "6W TO 12Y", "nightAge": "6W TO 12Y", "lang1": "ENGLISH", "dayCap": 8, "nightCap": 8, "status": "License issued (IL)", "lat": 41.792946, "lon": -87.61601}, {"id": "350857", "name": "SINAI PRESCHOOL", "street": "15 W DELAWARE PL", "city": "CHICAGO", "zip": "60610", "phone": "3128677010", "facilityType": "DCC", "dayAge": "2Y TO 5Y", "nightAge": "0", "lang1": "ENGLISH", "dayCap": 36, "nightCap": 0, "status": "Pending renewal application (RN)", "lat": 41.899075, "lon": -87.628948}, {"id": "001036", "name": "THE CHILDREN'S CENTER INC", "street": "12803 S HALSTED ST", "city": "CHICAGO", "zip": "60628", "phone": "7732645171", "facilityType": "DCC", "dayAge": "6W TO 12Y", "nightAge": "6W TO 12Y", "lang1": "ENGLISH", "dayCap": 161, "nightCap": 62, "status": "License issued (IL)", "lat": 41.660951, "lon": -87.641276}, {"id": "015333", "name": "NORTHWEST INSTITUTE FOR CONTEMP LEARNING", "street": "4040 WEST DIVISION", "city": "CHICAGO", "zip": "60651", "phone": "7739212800", "facilityType": "DCC", "dayAge": "2Y TO 6Y", "nightAge": "0", "lang1": "ENGLISH", "dayCap": 56, "nightCap": 0, "status": "License issued (IL)", "lat": 41.902708, "lon": -87.72787}, {"id": "015772", "name": "PARENT COOPERATIVE FOR EARLY LEARNING", "street": "5300 SOUTH SHORE DRIVE", "city": "CHICAGO", "zip": "60615", "phone": "7736846363", "facilityType": "DCC", "dayAge": "15M TO 6Y", "nightAge": "0", "lang1": "ENGLISH", "dayCap": 51, "nightCap": 0, "status": "License issued (IL)", "lat": 41.799588, "lon": -87.582395}, {"id": "015790", "name": "PARK WEST COOPERATIVE NURSERY SCHOOL", "street": "2214 N BISSELL ST", "city": "CHICAGO", "zip": "60614", "phone": "7733271115", "facilityType": "DCC", "dayAge": "2Y TO 6Y", "nightAge": "0", "lang1": "ENGLISH", "dayCap": 60, "nightCap": 0, "status": "Pending renewal application (RN)", "lat": 41.922493, "lon": -87.652377}, {"id": "018422", "name": "NORTH LAWNDALE YMCA", "street": "3449 W ARTHINGTON ST", "city": "CHICAGO", "zip": "60624", "phone": "7736380773", "facilityType": "DCC", "dayAge": "6W TO 12Y", "nightAge": "0", "lang1": "ENGLISH", "dayCap": 225, "nightCap": 0, "status": "License issued (IL)", "lat": 41.869933, "lon": -87.711682}, {"id": "019299", "name": "SOUTH SIDE YMCA", "street": "6330 S. STONY IS.", "city": "CHICAGO", "zip": "60637", "phone": "7733262570", "facilityType": "DCC", "dayAge": "15M TO 5Y", "nightAge": "0", "lang1": "ENGLISH", "dayCap": 64, "nightCap": 0, "status": "License issued (IL)", "lat": 41.78003, "lon": -87.586528}, {"id": "028002", "name": "LAURANCE ARMOUR DAY SCHOOL", "street": "2150 W HARRISON ST", "city": "CHICAGO", "zip": "60612", "phone": "3129426501", "facilityType": "DCC", "dayAge": "6W TO 14Y", "nightAge": "0", "lang1": "ENGLISH", "dayCap": 142, "nightCap": 0, "status": "License issued (IL)", "lat": 41.874038, "lon": -87.68015}, {"id": "040844", "name": "THE WHEATON BIBLE CHURCH PRE-SCHOOL", "street": "27 WEST 500 NORTH AVENUE", "city": "WEST CHICAGO", "zip": "60185", "phone": "6308766674", "facilityType": "DCC", "dayAge": "2Y TO 6Y", "nightAge": "0", "lang1": "ENGLISH", "dayCap": 133, "nightCap": 0, "status": "License issued (IL)", "lat": 41.911093, "lon": -87.643147}, {"id": "066515", "name": "CHICAGO YOUTH CENTERS-EPSTEIN CENTER", "street": "3415 W 13TH PL", "city": "CHICAGO", "zip": "60623", "phone": "7737625655", "facilityType": "DCC", "dayAge": "3Y TO 12Y", "nightAge": "0", "lang1": "ENGLISH", "dayCap": 49, "nightCap": 0, "status": "License issued (IL)", "lat": 41.864056, "lon": -87.712553}, {"id": "092697", "name": "FREIDHEIM ENGLEWOOD CHILD& FAMILY CENTER", "street": "1701 W 63RD ST", "city": "CHICAGO", "zip": "60636", "phone": "7734766998", "facilityType": "DCC", "dayAge": "6W TO 6Y", "nightAge": "0", "lang1": "ENGLISH", "dayCap": 197, "nightCap": 0, "status": "Pending renewal application (RN)", "lat": 41.779357, "lon": -87.666745}, {"id": "096320", "name": "LITTLE FOLKS COTTAGE", "street": "5926 W MADISON ST # 30", "city": "CHICAGO", "zip": "60644", "phone": "7733794419", "facilityType": "DCC", "dayAge": "6W TO 6Y", "nightAge": "0", "lang1": "ENGLISH", "dayCap": 119, "nightCap": 0, "status": "License issued (IL)", "lat": 41.880221, "lon": -87.772478}, {"id": "100678", "name": "HIGH HOPES LEARNING CENTER", "street": "6224 111TH ST", "city": "CHICAGO RIDGE", "zip": "60415", "phone": "7084240152", "facilityType": "DCC", "dayAge": "6W TO 12Y", "nightAge": "0", "lang1": "ENGLISH", "dayCap": 98, "nightCap": 0, "status": "License issued (IL)", "lat": 41.690489, "lon": -87.774869}, {"id": "105145", "name": "COLBERT, SENELL A", "street": "4736 W FULTON ST", "city": "CHICAGO", "zip": "60644", "phone": "7739812275", "facilityType": "DCH", "dayAge": "6W TO 12Y", "nightAge": "6W TO 12Y", "lang1": "ENGLISH", "dayCap": 8, "nightCap": 8, "status": "License issued (IL)", "lat": 41.885433, "lon": -87.743924}, {"id": "135323", "name": "LITTLE FOX DAY CARE CENTER", "street": "5014 NORTH LINCOLN", "city": "CHICAGO", "zip": "60625", "phone": "7735617206", "facilityType": "DCC", "dayAge": "6W TO 13Y", "nightAge": "0", "lang1": "ENGLISH", "dayCap": 73, "nightCap": 0, "status": "License issued (IL)", "lat": 41.972221, "lon": -87.690963}, {"id": "158623", "name": "HARRIS, PEARL M", "street": "8135 S PERRY AVE", "city": "CHICAGO", "zip": "60620", "phone": "8722447772", "facilityType": "DCH", "dayAge": "0  TO 12Y", "nightAge": "0  TO 12Y", "lang1": "ENGLISH", "dayCap": 8, "nightCap": 8, "status": "Pending renewal application (RN)", "lat": 41.746313, "lon": -87.626834}, {"id": "186780", "name": "WINSTON, DORA L", "street": "2249 WEST MARQUETTE", "city": "CHICAGO", "zip": "60636", "phone": "7734713020", "facilityType": "DCH", "dayAge": "15M TO 12Y", "nightAge": "0", "lang1": "ENGLISH", "dayCap": 8, "nightCap": 0, "status": "License issued (IL)", "lat": 41.771939, "lon": -87.680099}, {"id": "200794", "name": "JOHNSON, LENORE C", "street": "5810 NORTH CHRISTIANA", "city": "CHICAGO", "zip": "60659", "phone": "7734635728", "facilityType": "GDC", "dayAge": "6W TO 12Y", "nightAge": "0", "lang1": "ENGLISH", "dayCap": 12, "nightCap": 0, "status": "License issued (IL)", "lat": 41.986887, "lon": -87.712732}, {"id": "206771", "name": "HALL, SHEILA", "street": "8359 S KARLOV AVE", "city": "CHICAGO", "zip": "60652", "phone": "7737358124", "facilityType": "DCH", "dayAge": "6W TO 12Y", "nightAge": "6W TO 12Y", "lang1": "ENGLISH", "dayCap": 6, "nightCap": 6, "status": "License issued (IL)", "lat": 41.740874, "lon": -87.72399}, {"id": "223242", "name": "NEAR NORTH MONTESSORI SCHOOL", "street": "1434 W. DIVISION STREET", "city": "CHICAGO", "zip": "60622", "phone": "7733841434", "facilityType": "DCC", "dayAge": "2Y TO 3Y", "nightAge": "0", "lang1": "ENGLISH", "dayCap": 48, "nightCap": 0, "status": "License issued (IL)", "lat": 41.903441, "lon": -87.663971}, {"id": "239583", "name": "ALL ABOARD LEARNING EXPRESS INC", "street": "4008 WEST ROSEMONT", "city": "CHICAGO", "zip": "60646", "phone": "7732020554", "facilityType": "DCC", "dayAge": "15M TO 12Y", "nightAge": "0", "lang1": "ENGLISH", "dayCap": 75, "nightCap": 0, "status": "License issued (IL)", "lat": 41.99539, "lon": -87.729424}, {"id": "244511", "name": "BUTTS, LORRAINE S", "street": "5033 W QUINCY ST", "city": "CHICAGO", "zip": "60644", "phone": "7733920430", "facilityType": "DCH", "dayAge": "6W TO 12Y", "nightAge": "6W TO 12Y", "lang1": "ENGLISH", "dayCap": 6, "nightCap": 6, "status": "License issued (IL)", "lat": 41.877575, "lon": -87.750025}, {"id": "252496", "name": "BEAMON, KATHERINE N", "street": "6614 S RICHMOND ST", "city": "CHICAGO", "zip": "60629", "phone": "7733060861", "facilityType": "DCH", "dayAge": "0", "nightAge": "6W TO 12Y", "lang1": "ENGLISH", "dayCap": 0, "nightCap": 8, "status": "License issued (IL)", "lat": 41.773195, "lon": -87.696979}, {"id": "265059", "name": "TAYLOR, CYNTHIA", "street": "2148 W MONTROSE AVE", "city": "CHICAGO", "zip": "60618", "phone": "7736195545", "facilityType": "GDC", "dayAge": "6W TO 12Y", "nightAge": "6W TO 12Y", "lang1": "ENGLISH", "dayCap": 12, "nightCap": 3, "status": "Pending renewal application (RN)", "lat": 41.961457, "lon": -87.683287}, {"id": "268842", "name": "BRIGHT HORIZONS CHICAGO WEST LOOP", "street": "500 WEST MONROE STREET", "city": "CHICAGO", "zip": "60661", "phone": "3128768687", "facilityType": "DCC", "dayAge": "6W TO 12Y", "nightAge": "0", "lang1": "ENGLISH", "dayCap": 56, "nightCap": 0, "status": "Pending renewal application (RN)", "lat": 41.880647, "lon": -87.639725}, {"id": "270229", "name": "CARE-A-LOT II EARLY LEARNING CENTER, INC", "street": "5522 NORTH MILWAUKEE AVENUE", "city": "CHICAGO", "zip": "60630", "phone": "7737630888", "facilityType": "DCC", "dayAge": "15M TO 10Y", "nightAge": "0", "lang1": "ENGLISH", "dayCap": 47, "nightCap": 0, "status": "License issued (IL)", "lat": 41.981939, "lon": -87.773555}, {"id": "272363", "name": "BLACK PEARL CORP", "street": "1855 W 95TH ST", "city": "CHICAGO", "zip": "60643", "phone": "7732380117", "facilityType": "DCC", "dayAge": "6W TO 12Y", "nightAge": "6W TO 12Y", "lang1": "ENGLISH", "dayCap": 86, "nightCap": 86, "status": "License issued (IL)", "lat": 41.720996, "lon": -87.669569}, {"id": "274866", "name": "MOTHER'S TOUCH DAY CARE", "street": "2501 W 71ST ST", "city": "CHICAGO", "zip": "60629", "phone": "7734363177", "facilityType": "DCC", "dayAge": "6W TO 5Y", "nightAge": "0", "lang1": "ENGLISH", "dayCap": 52, "nightCap": 0, "status": "License issued (IL)", "lat": 41.764597, "lon": -87.685766}, {"id": "277104", "name": "GREENWOOD, TOMIE", "street": "3246 WEST WASHINGTON", "city": "CHICAGO", "zip": "60624", "phone": "7732659335", "facilityType": "DCH", "dayAge": "6W TO 12Y", "nightAge": "6W TO 12Y", "lang1": "ENGLISH", "dayCap": 8, "nightCap": 8, "status": "Pending renewal application (RN)", "lat": 41.882838, "lon": -87.70707}, {"id": "277651", "name": "DONNEGAN, SHARON D", "street": "836 EAST 89TH PLACE", "city": "CHICAGO", "zip": "60619", "phone": "3122240289", "facilityType": "DCH", "dayAge": "0  TO 12Y", "nightAge": "0", "lang1": "ENGLISH", "dayCap": 6, "nightCap": 0, "status": "Refuse to Renew (RR)", "lat": 41.732164, "lon": -87.603659}, {"id": "279126", "name": "ALBANY PARK COMMUNITY CENTER", "street": "5101 N KIMBALL AVE", "city": "CHICAGO", "zip": "60625", "phone": "7735095657", "facilityType": "DCC", "dayAge": "6W TO 12Y", "nightAge": "0", "lang1": "ARABIC", "dayCap": 256, "nightCap": 0, "status": "Pending renewal application (RN)", "lat": 41.973981, "lon": -87.713442}, {"id": "313073", "name": "LINCOLN PARK PREPARATORY", "street": "108 W GERMANIA PL", "city": "CHICAGO", "zip": "60610", "phone": "3124829009", "facilityType": "DCC", "dayAge": "2Y TO 6Y", "nightAge": "0", "lang1": "ENGLISH", "dayCap": 72, "nightCap": 0, "status": "License issued (IL)", "lat": 41.910484, "lon": -87.631773}, {"id": "316526", "name": "DANIELS, MARCELLA", "street": "8908 S LOWE AVE", "city": "CHICAGO", "zip": "60620", "phone": "7738465360", "facilityType": "DCH", "dayAge": "6W TO 12Y", "nightAge": "6W TO 12Y", "lang1": "ENGLISH", "dayCap": 8, "nightCap": 8, "status": "Pending renewal application (RN)", "lat": 41.732377, "lon": -87.639942}, {"id": "316534", "name": "MINTO, PEARLINE N", "street": "2603 W 80TH PL", "city": "CHICAGO", "zip": "60652", "phone": "7737267073", "facilityType": "DCH", "dayAge": "6W TO 12Y", "nightAge": "6W TO 12Y", "lang1": "ENGLISH", "dayCap": 8, "nightCap": 8, "status": "License issued (IL)", "lat": 41.747239, "lon": -87.68778}, {"id": "318714", "name": "HARRELL, TUNIK", "street": "11156 S HOYNE AVE", "city": "CHICAGO", "zip": "60643", "phone": "7734574067", "facilityType": "DCH", "dayAge": "0  TO 12Y", "nightAge": "0  TO 12Y", "lang1": "ENGLISH", "dayCap": 8, "nightCap": 8, "status": "License issued (IL)", "lat": 41.690839, "lon": -87.673831}, {"id": "325458", "name": "AMMONS-MCQUAY, SHERISE", "street": "10224 S MORGAN ST", "city": "CHICAGO", "zip": "60643", "phone": "7735800639", "facilityType": "DCH", "dayAge": "6W TO 12Y", "nightAge": "6W TO 12Y", "lang1": "ENGLISH", "dayCap": 8, "nightCap": 8, "status": "Pending renewal application (RN)", "lat": 41.707962, "lon": -87.647801}, {"id": "329608", "name": "KILPATRICK, WENDY C", "street": "5168 W BLOOMINGDALE AVE", "city": "CHICAGO", "zip": "60639", "phone": "7732379860", "facilityType": "DCH", "dayAge": "6W TO 12Y", "nightAge": "6W TO 12Y", "lang1": "ENGLISH", "dayCap": 8, "nightCap": 8, "status": "Pending renewal application (RN)", "lat": 41.913223, "lon": -87.755029}, {"id": "333037", "name": "HOLLINGSWORTH, LA VEDA D", "street": "129 N MENARD AVE", "city": "CHICAGO", "zip": "60644", "phone": "7738283486", "facilityType": "DCH", "dayAge": "6W TO 12Y", "nightAge": "0", "lang1": "ENGLISH", "dayCap": 8, "nightCap": 0, "status": "Pending renewal application (RN)", "lat": 41.882919, "lon": -87.769778}, {"id": "333801", "name": "MOORE, CARMEN G", "street": "8141 S HARVARD AVE", "city": "CHICAGO", "zip": "60620", "phone": "7088210009", "facilityType": "DCH", "dayAge": "6W TO 12Y", "nightAge": "6W TO 12Y", "lang1": "ENGLISH", "dayCap": 8, "nightCap": 8, "status": "License issued (IL)", "lat": 41.746504, "lon": -87.632899}, {"id": "341232", "name": "THE BABY ACADEMY", "street": "8607 S COTTAGE GROVE AVE", "city": "CHICAGO", "zip": "60619", "phone": "7739944400", "facilityType": "DCC", "dayAge": "6W TO 12Y", "nightAge": "0", "lang1": "ENGLISH", "dayCap": 83, "nightCap": 0, "status": "Pending renewal application (RN)", "lat": 41.738304, "lon": -87.604793}, {"id": "345477", "name": "JONES, PATRICIA A", "street": "6357 S CAMPBELL AVE FL 2", "city": "CHICAGO", "zip": "60629", "phone": "7734766829", "facilityType": "DCH", "dayAge": "6W TO 12Y", "nightAge": "6W TO 12Y", "lang1": "ENGLISH", "dayCap": 8, "nightCap": 8, "status": "Pending address change application (AD)", "lat": 41.777991, "lon": -87.685979}, {"id": "354312", "name": "COLBERT, SHIRLEY A", "street": "4023 W CRYSTAL ST", "city": "CHICAGO", "zip": "60651", "phone": "7736783078", "facilityType": "DCH", "dayAge": "6W TO 12Y", "nightAge": "6W TO 12Y", "lang1": "ENGLISH", "dayCap": 8, "nightCap": 4, "status": "License issued (IL)", "lat": 41.903511, "lon": -87.726922}, {"id": "361272", "name": "CLAY, MARY L", "street": "7305 S INDIANA AVE", "city": "CHICAGO", "zip": "60619", "phone": "7736244019", "facilityType": "DCH", "dayAge": "6W TO 12Y", "nightAge": "6W TO 12Y", "lang1": "ENGLISH", "dayCap": 8, "nightCap": 8, "status": "License issued (IL)", "lat": 41.761837, "lon": -87.619923}, {"id": "004184", "name": "CHICAGO HEIGHTS NAZARENE NURSERY SCHOOL", "street": "699 WEST 8TH STREET", "city": "CHICAGO HEIGHTS", "zip": "60411", "phone": "7084813210", "facilityType": "DCC", "dayAge": "6W TO 12Y", "nightAge": "0", "lang1": "ENGLISH", "dayCap": 165, "nightCap": 0, "status": "Pending renewal application (RN)", "lat": 41.516978, "lon": -87.672725}, {"id": "005365", "name": "DALEY CHILD DEVELOPMENT CENTER - CCC", "street": "7500 SOUTH PULASKI ROAD", "city": "CHICAGO", "zip": "60652", "phone": "7738387561", "facilityType": "DCC", "dayAge": "2Y TO 10Y", "nightAge": "0", "lang1": "ENGLISH", "dayCap": 60, "nightCap": 0, "status": "License issued (IL)", "lat": 41.756326, "lon": -87.722288}, {"id": "011336", "name": "KENYATTA'S DAY CARE CENTER", "street": "2334 EAST 75TH STREET", "city": "CHICAGO", "zip": "60649", "phone": "7732213777", "facilityType": "DCC", "dayAge": "6W TO 12Y", "nightAge": "0", "lang1": "ENGLISH", "dayCap": 73, "nightCap": 0, "status": "License issued (IL)", "lat": 41.759032, "lon": -87.567482}, {"id": "012974", "name": "LUNA PARK NURSERY SCHOOL & KINDERGARTEN", "street": "3250 WEST FOSTER AVENUE", "city": "CHICAGO", "zip": "60625", "phone": "7734637195", "facilityType": "DCC", "dayAge": "6W TO 6Y", "nightAge": "0", "lang1": "ENGLISH", "dayCap": 63, "nightCap": 0, "status": "License issued (IL)", "lat": 41.975786, "lon": -87.710309}, {"id": "013405", "name": "MARY MEYER SCHOOL", "street": "2817 NORTH PINE GROVE", "city": "CHICAGO", "zip": "60657", "phone": "7735490870", "facilityType": "DCC", "dayAge": "3Y TO 6Y", "nightAge": "0", "lang1": "ENGLISH", "dayCap": 20, "nightCap": 0, "status": "Pending renewal application (RN)", "lat": 41.933444, "lon": -87.641298}, {"id": "015159", "name": "NEW PISGAH DAY CARE", "street": "8128 S RACINE AVE", "city": "CHICAGO", "zip": "60620", "phone": "7738735392", "facilityType": "DCC", "dayAge": "6W TO 6Y", "nightAge": "0", "lang1": "ENGLISH", "dayCap": 58, "nightCap": 0, "status": "License issued (IL)", "lat": 41.746313, "lon": -87.653703}, {"id": "015524", "name": "OLIVE-HARVEY CHILD DEVELOPMENT CENTER", "street": "10001 SOUTH WOODLAWN AVENUE", "city": "CHICAGO", "zip": "60628", "phone": "7732916317", "facilityType": "DCC", "dayAge": "2Y TO 12Y", "nightAge": "0", "lang1": "ENGLISH", "dayCap": 56, "nightCap": 0, "status": "License issued (IL)", "lat": 41.713393, "lon": -87.592213}, {"id": "018564", "name": "SHAVERS, TAMAR E", "street": "4827 NORTH SHERIDAN #402", "city": "CHICAGO", "zip": "60640", "phone": "7732711848", "facilityType": "DCH", "dayAge": "6W TO 12Y", "nightAge": "0", "lang1": "ENGLISH", "dayCap": 5, "nightCap": 0, "status": "License issued (IL)", "lat": 41.969868, "lon": -87.654761}, {"id": "019527", "name": "STAIR STEP VILLA NURS.& KINDERGARTEN INC", "street": "6725 SOUTH JEFFERY BOULEVARD", "city": "CHICAGO", "zip": "60649", "phone": "7736847340", "facilityType": "DCC", "dayAge": "2Y TO 6Y", "nightAge": "2Y TO 12Y", "lang1": "ENGLISH", "dayCap": 22, "nightCap": 12, "status": "Pending renewal application (RN)", "lat": 41.77298, "lon": -87.576402}, {"id": "020906", "name": "MCKINLEY TRUMBULL PARK DAY CARE", "street": "10534 S OGLESBY AVE", "city": "CHICAGO", "zip": "60617", "phone": "3129785341", "facilityType": "DCC", "dayAge": "3Y TO 6Y", "nightAge": "0", "lang1": "ENGLISH", "dayCap": 38, "nightCap": 0, "status": "Pending renewal application (RN)", "lat": 41.70447, "lon": -87.565819}, {"id": "086539", "name": "LITTLE ANGELS DAY CARE INC", "street": "6407 N MAPLEWOOD AVE", "city": "CHICAGO", "zip": "60645", "phone": "7733389770", "facilityType": "DCC", "dayAge": "6W TO 5Y", "nightAge": "0", "lang1": "ENGLISH", "dayCap": 50, "nightCap": 0, "status": "Pending renewal application (RN)", "lat": 41.997895, "lon": -87.693473}, {"id": "087791", "name": "MCCORMICK CHILD CARE CENTER/SWEDISH COV.", "street": "2824 W WINONA", "city": "CHICAGO", "zip": "60625", "phone": "7739071008", "facilityType": "DCC", "dayAge": "6W TO 6Y", "nightAge": "0", "lang1": "ENGLISH", "dayCap": 86, "nightCap": 0, "status": "License issued (IL)", "lat": 41.971884, "lon": -87.707384}, {"id": "103454", "name": "SZUR, SHARON M", "street": "6225 NORTH MOZART", "city": "CHICAGO", "zip": "60659", "phone": "7733386808", "facilityType": "DCH", "dayAge": "0  TO 12Y", "nightAge": "0", "lang1": "ENGLISH", "dayCap": 8, "nightCap": 0, "status": "Refuse to Renew (RR)", "lat": 41.994434, "lon": -87.700668}, {"id": "112220", "name": "DIVERSEY DAY CARE CENTER & KINDERGARTEN", "street": "3155 W DIVERSEY AVE", "city": "CHICAGO", "zip": "60647", "phone": "7733427777", "facilityType": "DCC", "dayAge": "6W TO 12Y", "nightAge": "0", "lang1": "ENGLISH", "dayCap": 198, "nightCap": 0, "status": "License issued (IL)", "lat": 41.93197, "lon": -87.706949}, {"id": "116897", "name": "DRENE CC SERV/ST. JUDE EDUC INSTITUTE", "street": "2219 E 79TH ST", "city": "CHICAGO", "zip": "60649", "phone": "7739781938", "facilityType": "DCC", "dayAge": "2Y TO 12Y", "nightAge": "0", "lang1": "ENGLISH", "dayCap": 50, "nightCap": 0, "status": "Pending renewal application (RN)", "lat": 41.751616, "lon": -87.570342}, {"id": "134252", "name": "WASHINGTON, SANDRA", "street": "5164 W WABANSIA AVE", "city": "CHICAGO", "zip": "60639", "phone": "7734791420", "facilityType": "DCH", "dayAge": "6W TO 12Y", "nightAge": "6W TO 12Y", "lang1": "ENGLISH", "dayCap": 8, "nightCap": 8, "status": "License issued (IL)", "lat": 41.911406, "lon": -87.754872}, {"id": "176159", "name": "CORPORATE CHILDCARE CONSULTANTS INC", "street": "78 W VAN BUREN ST", "city": "CHICAGO", "zip": "60605", "phone": "3128860834", "facilityType": "DCC", "dayAge": "6W TO 5Y", "nightAge": "0", "lang1": "ENGLISH", "dayCap": 63, "nightCap": 0, "status": "License issued (IL)", "lat": 41.876945, "lon": -87.630324}, {"id": "186457", "name": "HIGH MOUNTAIN HEAD START", "street": "919 NORTH LAVERGNE", "city": "CHICAGO", "zip": "60651", "phone": "7736263997", "facilityType": "DCC", "dayAge": "3Y TO 5Y", "nightAge": "0", "lang1": "ENGLISH", "dayCap": 34, "nightCap": 0, "status": "License issued (IL)", "lat": 41.897371, "lon": -87.750685}, {"id": "186779", "name": "SANDERS, DENISE", "street": "8155 S. TROY", "city": "CHICAGO", "zip": "60652", "phone": "7732095639", "facilityType": "DCH", "dayAge": "6W TO 12Y", "nightAge": "6W TO 12Y", "lang1": "ENGLISH", "dayCap": 8, "nightCap": 8, "status": "License issued (IL)", "lat": 41.745168, "lon": -87.700969}, {"id": "204683", "name": "FAMILY RESCUE/RIDGELAND DAYCARE CTR", "street": "6824 S. RIDGELAND", "city": "CHICAGO", "zip": "60649", "phone": "7736671073", "facilityType": "DCC", "dayAge": "5Y TO 12Y", "nightAge": "0", "lang1": "ENGLISH", "dayCap": 35, "nightCap": 0, "status": "License issued (IL)", "lat": 41.771136, "lon": -87.582664}, {"id": "235604", "name": "NIA FAMILY CENTER", "street": "744 NORTH MONTICELLO AVENUE", "city": "CHICAGO", "zip": "60624", "phone": "7737220115", "facilityType": "DCC", "dayAge": "6W TO 5Y", "nightAge": "0", "lang1": "ENGLISH", "dayCap": 162, "nightCap": 0, "status": "License issued (IL)", "lat": 41.894218, "lon": -87.717575}, {"id": "238738", "name": "MITCHELL, VANESSA D", "street": "9107 SOUTH WABASH AVENUE", "city": "CHICAGO", "zip": "60619", "phone": "7732644066", "facilityType": "DCH", "dayAge": "0  TO 12Y", "nightAge": "0", "lang1": "ENGLISH", "dayCap": 8, "nightCap": 0, "status": "Refuse to Renew (RR)", "lat": 41.728849, "lon": -87.62232}, {"id": "245509", "name": "OAKDALE CHRISTIAN CHILD CARE CENTER", "street": "9440 S VINCENNES AVE", "city": "CHICAGO", "zip": "60620", "phone": "7737799440", "facilityType": "DCC", "dayAge": "2Y TO 6Y", "nightAge": "0", "lang1": "ENGLISH", "dayCap": 61, "nightCap": 0, "status": "Pending renewal application (RN)", "lat": 41.72253, "lon": -87.65031}, {"id": "259639", "name": "BEST START DAYCARE CENTER", "street": "1352 W. 99TH STREET", "city": "CHICAGO", "zip": "60643", "phone": "7732339420", "facilityType": "DCC", "dayAge": "6W TO 12Y", "nightAge": "0", "lang1": "ENGLISH", "dayCap": 45, "nightCap": 0, "status": "Pending renewal application (RN)", "lat": 41.7141, "lon": -87.656805}, {"id": "277452", "name": "SMITH, MARION M", "street": "8925 S LOWE AVE", "city": "CHICAGO", "zip": "60620", "phone": "7735934029", "facilityType": "DCH", "dayAge": "6W TO 12Y", "nightAge": "6W TO 12Y", "lang1": "ENGLISH", "dayCap": 8, "nightCap": 8, "status": "Pending renewal application (RN)", "lat": 41.732111, "lon": -87.639781}, {"id": "278443", "name": "WEE CARE NURSERY SCHL.& KINDERGARTEN,INC", "street": "1845 E 79TH ST", "city": "CHICAGO", "zip": "60649", "phone": "7732214442", "facilityType": "DCC", "dayAge": "6W TO 12Y", "nightAge": "0", "lang1": "ENGLISH", "dayCap": 63, "nightCap": 0, "status": "License issued (IL)", "lat": 41.751502, "lon": -87.579375}, {"id": "296316", "name": "TAYLOR, PAMELA A", "street": "7611 S CRANDON AVE", "city": "CHICAGO", "zip": "60649", "phone": "7735104909", "facilityType": "DCH", "dayAge": "6W TO 12Y", "nightAge": "6W TO 12Y", "lang1": "ENGLISH", "dayCap": 8, "nightCap": 8, "status": "License issued (IL)", "lat": 41.756918, "lon": -87.568697}, {"id": "305748", "name": "SHAW, DARNISE A", "street": "8901 S UNION AVET", "city": "CHICAGO", "zip": "60620", "phone": "7736777988", "facilityType": "DCH", "dayAge": "6W TO 12Y", "nightAge": "6W TO 12Y", "lang1": "ENGLISH", "dayCap": 7, "nightCap": 7, "status": "License issued (IL)", "lat": 41.732513, "lon": -87.641007}, {"id": "306958", "name": "NEAR THE PIER DEVELOPMENT CENTER", "street": "540 N LAKE SHORE DRIVE", "city": "CHICAGO", "zip": "60611", "phone": "3125272223", "facilityType": "DCC", "dayAge": "6W TO 12Y", "nightAge": "0", "lang1": "ENGLISH", "dayCap": 88, "nightCap": 0, "status": "License issued (IL)", "lat": 41.891446, "lon": -87.6143}, {"id": "316535", "name": "FAULKNER, TINA M", "street": "7305 N HAMILTON AVE", "city": "CHICAGO", "zip": "60645", "phone": "3122062756", "facilityType": "DCH", "dayAge": "6W TO 12Y", "nightAge": "6W TO 12Y", "lang1": "ENGLISH", "dayCap": 8, "nightCap": 8, "status": "License issued (IL)", "lat": 42.014128, "lon": -87.684889}, {"id": "325150", "name": "HARRIS, ROSALYN D", "street": "9257 S UNION AVE", "city": "CHICAGO", "zip": "60620", "phone": "7737837109", "facilityType": "DCH", "dayAge": "0  TO 12Y", "nightAge": "0  TO 10Y", "lang1": "ENGLISH", "dayCap": 8, "nightCap": 8, "status": "Pending renewal application (RN)", "lat": 41.725937, "lon": -87.640832}, {"id": "335263", "name": "THE CHILDREN'S PLACE FAMILY CENTER", "street": "1800 NORTH HUMBOLDT PARK BLVD.", "city": "CHICAGO", "zip": "60647", "phone": "7733959193", "facilityType": "DCC", "dayAge": "6W TO 6Y", "nightAge": "0", "lang1": "ENGLISH", "dayCap": 80, "nightCap": 0, "status": "Pending renewal application (RN)", "lat": 41.913939, "lon": -87.702405}, {"id": "336856", "name": "HARRIS, SANDRA J", "street": "3403 W PIERCE AVE", "city": "CHICAGO", "zip": "60651", "phone": "7735310351", "facilityType": "DCH", "dayAge": "6W TO 12Y", "nightAge": "6W TO 12Y", "lang1": "ENGLISH", "dayCap": 8, "nightCap": 8, "status": "License issued (IL)", "lat": 41.909072, "lon": -87.712005}, {"id": "348098", "name": "START EARLY - EDUCARE CHICAGO", "street": "5044 S WABASH AVE", "city": "CHICAGO", "zip": "60615", "phone": "7739242334", "facilityType": "DCC", "dayAge": "6W TO 6Y", "nightAge": "0", "lang1": "ENGLISH", "dayCap": 204, "nightCap": 0, "status": "License issued (IL)", "lat": 41.802972, "lon": -87.624375}, {"id": "354442", "name": "MYERS, BOBBIE J", "street": "9648 S VANDERPOEL AVE APT 1", "city": "CHICAGO", "zip": "60643", "phone": "7738587093", "facilityType": "DCH", "dayAge": "0  TO 12Y", "nightAge": "0  TO 12Y", "lang1": "ENGLISH", "dayCap": 8, "nightCap": 8, "status": "License issued (IL)", "lat": 41.718636, "lon": -87.666211}, {"id": "358162", "name": "MARSHALL YMCA", "street": "3250 W ADAMS ST", "city": "CHICAGO", "zip": "60624", "phone": "7732650145", "facilityType": "DCC", "dayAge": "6W TO 3Y", "nightAge": "0", "lang1": "ENGLISH", "dayCap": 36, "nightCap": 0, "status": "License issued (IL)", "lat": 41.87844, "lon": -87.706858}, {"id": "363549", "name": "HALL, MARY F", "street": "956 N LAWNDALE AVE REAR", "city": "CHICAGO", "zip": "60651", "phone": "7732527492", "facilityType": "DCH", "dayAge": "6W TO 12Y", "nightAge": "6W TO 12Y", "lang1": "ENGLISH", "dayCap": 8, "nightCap": 3, "status": "License issued (IL)", "lat": 41.898295, "lon": -87.718926}, {"id": "364213", "name": "RICHMOND, BERNICE", "street": "9441 S LEAVITT ST", "city": "CHICAGO", "zip": "60643", "phone": "7737798892", "facilityType": "DCH", "dayAge": "0  TO 12Y", "nightAge": "0  TO 12Y", "lang1": "ENGLISH", "dayCap": 8, "nightCap": 8, "status": "License issued (IL)", "lat": 41.722251, "lon": -87.677177}, {"id": "364524", "name": "DREWITT, NATOLIE", "street": "7921 S OGLESBY AVE", "city": "CHICAGO", "zip": "60617", "phone": "7732093169", "facilityType": "DCH", "dayAge": "0", "nightAge": "6W TO 12Y", "lang1": "ENGLISH", "dayCap": 0, "nightCap": 8, "status": "License issued (IL)", "lat": 41.751089, "lon": -87.567364}, {"id": "367785", "name": "BEAVER, ANNETTE A", "street": "8103 S CLAREMONT AVE", "city": "CHICAGO", "zip": "60620", "phone": "7734341965", "facilityType": "DCH", "dayAge": "6W TO 12Y", "nightAge": "6W TO 12Y", "lang1": "ENGLISH", "dayCap": 8, "nightCap": 8, "status": "License issued (IL)", "lat": 41.746411, "lon": -87.681506}, {"id": "368473", "name": "LAURY, KENYAETTA", "street": "136 N HOYNE AVE APT B", "city": "CHICAGO", "zip": "60612", "phone": "3123741016", "facilityType": "DCH", "dayAge": "6W TO 12Y", "nightAge": "6W TO 12Y", "lang1": "ENGLISH", "dayCap": 8, "nightCap": 8, "status": "License issued (IL)", "lat": 41.883693, "lon": -87.679223}, {"id": "378988", "name": "COYE, EDWY E", "street": "5210 S DORCHESTER AVE", "city": "CHICAGO", "zip": "60615", "phone": "7739785192", "facilityType": "DCH", "dayAge": "3Y TO 12Y", "nightAge": "3Y TO 12Y", "lang1": "ENGLISH", "dayCap": 8, "nightCap": 8, "status": "License issued (IL)", "lat": 41.800782, "lon": -87.591893}, {"id": "006763", "name": "FAMILIES TOGETHER COOP NURSERY SCHOOL", "street": "1500 W ELMDALE AVE", "city": "CHICAGO", "zip": "60660", "phone": "7733815200", "facilityType": "DCC", "dayAge": "2Y TO 6Y", "nightAge": "0", "lang1": "ENGLISH", "dayCap": 40, "nightCap": 0, "status": "Pending renewal application (RN)", "lat": 41.990889, "lon": -87.667678}, {"id": "012554", "name": "LINCOLN PARK COOPERATIVE NURSERY SCHOOL", "street": "1753 NORTH FERN COURT", "city": "CHICAGO", "zip": "60614", "phone": "3129445469", "facilityType": "DCC", "dayAge": "2Y TO 6Y", "nightAge": "0", "lang1": "ENGLISH", "dayCap": 40, "nightCap": 0, "status": "License issued (IL)", "lat": 41.914168, "lon": -87.639327}, {"id": "014064", "name": "MERRY-GO-ROUND PRE-SCHOOL", "street": "2909 WEST 63RD STREET", "city": "CHICAGO", "zip": "60629", "phone": "3129255555", "facilityType": "DCC", "dayAge": "2Y TO 10Y", "nightAge": "0", "lang1": "ENGLISH", "dayCap": 38, "nightCap": 0, "status": "Refuse to Renew (RR)", "lat": 41.779013, "lon": -87.696208}, {"id": "029395", "name": "KENNEDY KING COLLEG CHILD DEV LAB CTR", "street": "710 WEST 65TH STREET BLDG Z", "city": "CHICAGO", "zip": "60621", "phone": "7736025481", "facilityType": "DCC", "dayAge": "2Y TO 12Y", "nightAge": "0", "lang1": "ENGLISH", "dayCap": 92, "nightCap": 0, "status": "Pending renewal application (RN)", "lat": 41.776195, "lon": -87.642861}, {"id": "043716", "name": "LITTLE TYKES PRE-SCHOOL, INC.", "street": "1711 W 35TH ST", "city": "CHICAGO", "zip": "60609", "phone": "7732547710", "facilityType": "DCC", "dayAge": "2Y TO 12Y", "nightAge": "0", "lang1": "ENGLISH", "dayCap": 85, "nightCap": 0, "status": "License issued (IL)", "lat": 41.830411, "lon": -87.668413}, {"id": "062473", "name": "KIDWATCH PLUS", "street": "3330 N LOCKWOOD AVE", "city": "CHICAGO", "zip": "60641", "phone": "7739930536", "facilityType": "DCC", "dayAge": "6W TO 12Y", "nightAge": "0", "lang1": "ENGLISH", "dayCap": 129, "nightCap": 0, "status": "License issued (IL)", "lat": 41.941461, "lon": -87.759311}, {"id": "068191", "name": "NORTHEASTERN ILL. UNIVERSITY CHILD CARE", "street": "5500 N ST LOUIS AVE", "city": "CHICAGO", "zip": "60625", "phone": "7734424540", "facilityType": "DCC", "dayAge": "15M TO 10Y", "nightAge": "2Y TO 10Y", "lang1": "ENGLISH", "dayCap": 87, "nightCap": 20, "status": "Pending renewal application (RN)", "lat": 41.981214, "lon": -87.716193}, {"id": "082912", "name": "PILL HILL DEVELOPMENT CENTER", "street": "8802 S STONY ISLAND AVE", "city": "CHICAGO", "zip": "60617", "phone": "7732216800", "facilityType": "DCC", "dayAge": "2Y TO 12Y", "nightAge": "0", "lang1": "ENGLISH", "dayCap": 65, "nightCap": 0, "status": "Pending renewal application (RN)", "lat": 41.734997, "lon": -87.585676}, {"id": "108943", "name": "BUNNYLAND DEVELOPMENTAL DAY CARE CENTER", "street": "545 W 119TH ST", "city": "CHICAGO", "zip": "60628", "phone": "7735685200", "facilityType": "DCC", "dayAge": "6W TO 12Y", "nightAge": "0", "lang1": "ENGLISH", "dayCap": 109, "nightCap": 0, "status": "License issued (IL)", "lat": 41.677818, "lon": -87.63618}, {"id": "121690", "name": "GRAY, VERA M", "street": "1136 N HARDING AVE", "city": "CHICAGO", "zip": "60651", "phone": "7732760771", "facilityType": "DCH", "dayAge": "6W TO 12Y", "nightAge": "0", "lang1": "ENGLISH", "dayCap": 8, "nightCap": 0, "status": "License issued (IL)", "lat": 41.901991, "lon": -87.725135}, {"id": "167694", "name": "BRICKTON MONTESSORI SCHOOL", "street": "8622 WEST CATALPA", "city": "CHICAGO", "zip": "60656", "phone": "7737140646", "facilityType": "DCC", "dayAge": "6W TO 3Y", "nightAge": "0", "lang1": "ENGLISH", "dayCap": 59, "nightCap": 0, "status": "License issued (IL)", "lat": 41.979269, "lon": -87.842092}, {"id": "178307", "name": "THE CENTRO NUESTRO DAY CARE CENTER", "street": "3222 W DIVISION ST", "city": "CHICAGO", "zip": "60651", "phone": "7734893157", "facilityType": "DCC", "dayAge": "3Y TO 6Y", "nightAge": "0", "lang1": "ENGLISH", "dayCap": 40, "nightCap": 0, "status": "License issued (IL)", "lat": 41.902879, "lon": -87.707538}, {"id": "190946", "name": "SHEPHERD, RHONDA R", "street": "7025 S ARTESIAN AVE FL 2", "city": "CHICAGO", "zip": "60629", "phone": "7738411858", "facilityType": "DCH", "dayAge": "6W TO 12Y", "nightAge": "6W TO 12Y", "lang1": "ENGLISH", "dayCap": 8, "nightCap": 8, "status": "License issued (IL)", "lat": 41.766136, "lon": -87.684429}, {"id": "206077", "name": "PAUL K. KENNEDY CHILD CARE CENTER", "street": "VAMC BUILDING 135", "city": "NORTH CHICAGO", "zip": "60064", "phone": "2246103896", "facilityType": "DCC", "dayAge": "6W TO 6Y", "nightAge": "0", "lang1": "ENGLISH", "dayCap": 87, "nightCap": 0, "status": "License issued (IL)", "lat": 41.911053, "lon": -87.63385}, {"id": "210134", "name": "CANNON, SUSIE", "street": "5921 W. RICE", "city": "CHICAGO", "zip": "60651", "phone": "3127569045", "facilityType": "DCH", "dayAge": "6W TO 12Y", "nightAge": "6W TO 12Y", "lang1": "ENGLISH", "dayCap": 8, "nightCap": 8, "status": "License issued (IL)", "lat": 41.895591, "lon": -87.772946}, {"id": "218339", "name": "CARTER, OLIVIA M", "street": "5523 S WABASH AVE", "city": "CHICAGO", "zip": "60637", "phone": "7737805922", "facilityType": "DCH", "dayAge": "6W TO 12Y", "nightAge": "6W TO 12Y", "lang1": "ENGLISH", "dayCap": 8, "nightCap": 8, "status": "License issued (IL)", "lat": 41.793978, "lon": -87.623992}, {"id": "218461", "name": "HOPE FOR YOUTH DAY CARE", "street": "5900 W IOWA ST", "city": "CHICAGO", "zip": "60651", "phone": "7736260322", "facilityType": "DCC", "dayAge": "3Y TO 5Y", "nightAge": "0", "lang1": "ENGLISH", "dayCap": 40, "nightCap": 0, "status": "License issued (IL)", "lat": 41.896632, "lon": -87.772433}, {"id": "228013", "name": "LLOYD, CASSANDRA I", "street": "7016 S EMERALD AVE", "city": "CHICAGO", "zip": "60621", "phone": "7738748536", "facilityType": "DCH", "dayAge": "6W TO 12Y", "nightAge": "6W TO 12Y", "lang1": "ENGLISH", "dayCap": 8, "nightCap": 4, "status": "License issued (IL)", "lat": 41.766695, "lon": -87.643282}, {"id": "236020", "name": "MADDOX, BETTINA L", "street": "5221 S ASHLAND AVE", "city": "CHICAGO", "zip": "60609", "phone": "7736539663", "facilityType": "DCH", "dayAge": "6W TO 12Y", "nightAge": "6W TO 12Y", "lang1": "ENGLISH", "dayCap": 8, "nightCap": 8, "status": "Pending renewal application (RN)", "lat": 41.799089, "lon": -87.664646}, {"id": "250179", "name": "MCKINNEYS EARLY LEARNING ACADEMY", "street": "5733 W DIVISION ST # 43", "city": "CHICAGO", "zip": "60651", "phone": "7736263151", "facilityType": "DCC", "dayAge": "6W TO 12Y", "nightAge": "0", "lang1": "ENGLISH", "dayCap": 78, "nightCap": 0, "status": "License issued (IL)", "lat": 41.902033, "lon": -87.769368}, {"id": "273975", "name": "JOHNSON, DOROTHY", "street": "4141 W. VAN BUREN", "city": "CHICAGO", "zip": "60624", "phone": "7737225724", "facilityType": "DCH", "dayAge": "6W TO 12Y", "nightAge": "6W TO 12Y", "lang1": "ENGLISH", "dayCap": 7, "nightCap": 3, "status": "License issued (IL)", "lat": 41.875164, "lon": -87.728949}, {"id": "291788", "name": "HENRY BOOTH HOUSE/NEAR SOUTH HEAD START", "street": "2929 SOUTH WABASH", "city": "CHICAGO", "zip": "60616", "phone": "3127910424", "facilityType": "DCC", "dayAge": "3Y TO 5Y", "nightAge": "0", "lang1": "ENGLISH", "dayCap": 39, "nightCap": 0, "status": "License issued (IL)", "lat": 41.841621, "lon": -87.625149}, {"id": "300546", "name": "ANDERSON-SYKES, BARBARA J", "street": "7734 PRAIRIE", "city": "CHICAGO", "zip": "60619", "phone": "7735505151", "facilityType": "DCH", "dayAge": "6W TO 12Y", "nightAge": "0", "lang1": "ENGLISH", "dayCap": 8, "nightCap": 0, "status": "License issued (IL)", "lat": 41.754057, "lon": -87.618296}, {"id": "316621", "name": "ABC ACADEMY", "street": "2714 W PRATT BLVD", "city": "CHICAGO", "zip": "60645", "phone": "7733381033", "facilityType": "DCC", "dayAge": "15M TO 12Y", "nightAge": "0", "lang1": "ENGLISH", "dayCap": 58, "nightCap": 0, "status": "Pending renewal application (RN)", "lat": 42.00494, "lon": -87.697959}, {"id": "321293", "name": "THOMAS, LINDA A", "street": "6515 S MOZART ST", "city": "CHICAGO", "zip": "60629", "phone": "7737760327", "facilityType": "DCH", "dayAge": "6W TO 12Y", "nightAge": "6W TO 12Y", "lang1": "ENGLISH", "dayCap": 8, "nightCap": 8, "status": "License issued (IL)", "lat": 41.775153, "lon": -87.694431}, {"id": "323906", "name": "CARE-A-LOT EARLY LEARNING CENTER, INC", "street": "6441 N CENTRAL AVE", "city": "CHICAGO", "zip": "60646", "phone": "7737638888", "facilityType": "DCC", "dayAge": "15M TO 7Y", "nightAge": "0", "lang1": "ENGLISH", "dayCap": 34, "nightCap": 0, "status": "License issued (IL)", "lat": 41.998291, "lon": -87.763369}, {"id": "329110", "name": "SIMS, MARY A", "street": "230 NORTH PARKSIDE  APT 2ND FL", "city": "CHICAGO", "zip": "60644", "phone": "7736263181", "facilityType": "DCH", "dayAge": "6W TO 12Y", "nightAge": "6W TO 12Y", "lang1": "ENGLISH", "dayCap": 8, "nightCap": 8, "status": "License issued (IL)", "lat": 41.884685, "lon": -87.766745}, {"id": "334257", "name": "YOUNG SCHOLARS DEVELOPMENTAL INSTITUTE", "street": "3038 W 59TH ST", "city": "CHICAGO", "zip": "60629", "phone": "7739181944", "facilityType": "DCC", "dayAge": "6W TO 12Y", "nightAge": "0", "lang1": "ENGLISH", "dayCap": 110, "nightCap": 0, "status": "Pending renewal application (RN)", "lat": 41.786356, "lon": -87.699967}, {"id": "345134", "name": "COLLINS, CYNTHIA M", "street": "1658 N BELL AVE", "city": "CHICAGO", "zip": "60647", "phone": "7733959308", "facilityType": "DCH", "dayAge": "6W TO 12Y", "nightAge": "0", "lang1": "ENGLISH", "dayCap": 4, "nightCap": 0, "status": "Refuse to Renew (RR)", "lat": 41.911544, "lon": -87.683674}, {"id": "345577", "name": "THURMAN, SHARON L", "street": "7209 S WINCHESTER AVE", "city": "CHICAGO", "zip": "60636", "phone": "7737477520", "facilityType": "DCH", "dayAge": "6W TO 12Y", "nightAge": "6W TO 12Y", "lang1": "ENGLISH", "dayCap": 8, "nightCap": 8, "status": "License issued (IL)", "lat": 41.762803, "lon": -87.672189}, {"id": "345897", "name": "DRAKE, CHARITY M", "street": "12141 S PRINCETON AVE", "city": "CHICAGO", "zip": "60628", "phone": "7737384073", "facilityType": "DCH", "dayAge": "0  TO 12Y", "nightAge": "0  TO 12Y", "lang1": "ENGLISH", "dayCap": 8, "nightCap": 8, "status": "License issued (IL)", "lat": 41.673559, "lon": -87.629662}, {"id": "347969", "name": "LUCKETT, JOYCE A", "street": "8136 S ELIZABETH ST", "city": "CHICAGO", "zip": "60620", "phone": "7734887819", "facilityType": "DCH", "dayAge": "15M TO 12Y", "nightAge": "15M TO 12Y", "lang1": "ENGLISH", "dayCap": 8, "nightCap": 8, "status": "License issued (IL)", "lat": 41.746156, "lon": -87.654911}, {"id": "347974", "name": "DANIELS, BRENETTER", "street": "8014 S CONSTANCE AVE", "city": "CHICAGO", "zip": "60617", "phone": "7733744163", "facilityType": "DCH", "dayAge": "6W TO 12Y", "nightAge": "6W TO 12Y", "lang1": "ENGLISH", "dayCap": 8, "nightCap": 8, "status": "Pending renewal application (RN)", "lat": 41.749432, "lon": -87.580081}, {"id": "348213", "name": "LIPSEY, ERICKA", "street": "8051 S WABASH AVE", "city": "CHICAGO", "zip": "60619", "phone": "7735590228", "facilityType": "DCH", "dayAge": "6W TO 12Y", "nightAge": "2Y TO 12Y", "lang1": "ENGLISH", "dayCap": 8, "nightCap": 8, "status": "License issued (IL)", "lat": 41.748226, "lon": -87.622848}, {"id": "350253", "name": "LAWNDALE COMM. DAY CARE", "street": "1800 S LAWNDALE AVE", "city": "CHICAGO", "zip": "60623", "phone": "7732570497", "facilityType": "DCC", "dayAge": "2Y TO 6Y", "nightAge": "0", "lang1": "ENGLISH", "dayCap": 32, "nightCap": 0, "status": "License issued (IL)", "lat": 41.857061, "lon": -87.717701}, {"id": "356652", "name": "MASON, KATRINA M", "street": "9906 S SANGAMON ST", "city": "CHICAGO", "zip": "60643", "phone": "7737504561", "facilityType": "DCH", "dayAge": "0", "nightAge": "6W TO 12Y", "lang1": "ENGLISH", "dayCap": 0, "nightCap": 8, "status": "License issued (IL)", "lat": 41.714001, "lon": -87.646738}, {"id": "356658", "name": "GRAY, PHYLLIS", "street": "9756 S INDIANA AVE", "city": "CHICAGO", "zip": "60628", "phone": "7733706881", "facilityType": "DCH", "dayAge": "0  TO 12Y", "nightAge": "0  TO 12Y", "lang1": "ENGLISH", "dayCap": 8, "nightCap": 8, "status": "License issued (IL)", "lat": 41.717132, "lon": -87.618974}, {"id": "357392", "name": "HARDAWAY, LAVERN N", "street": "1006 S MASON AVE", "city": "CHICAGO", "zip": "60644", "phone": "7734266498", "facilityType": "DCH", "dayAge": "6W TO 12Y", "nightAge": "6W TO 12Y", "lang1": "ENGLISH", "dayCap": 8, "nightCap": 8, "status": "License issued (IL)", "lat": 41.868971, "lon": -87.773105}, {"id": "358155", "name": "SMITH, SANDRA J", "street": "7426 S MARYLAND AVE", "city": "CHICAGO", "zip": "60619", "phone": "7737238311", "facilityType": "DCH", "dayAge": "6W TO 12Y", "nightAge": "6W TO 12Y", "lang1": "ENGLISH", "dayCap": 8, "nightCap": 8, "status": "License issued (IL)", "lat": 41.759697, "lon": -87.604252}, {"id": "358395", "name": "BURTON, DE CARLA L", "street": "8168 S CORNELL AVE", "city": "CHICAGO", "zip": "60617", "phone": "7732069451", "facilityType": "GDC", "dayAge": "6W TO 12Y", "nightAge": "0", "lang1": "ENGLISH", "dayCap": 12, "nightCap": 0, "status": "License issued (IL)", "lat": 41.746711, "lon": -87.584257}, {"id": "368146", "name": "BOONE, MARILYN", "street": "7138 S TROY ST", "city": "CHICAGO", "zip": "60629", "phone": "7737787341", "facilityType": "DCH", "dayAge": "6W TO 12Y", "nightAge": "0", "lang1": "ENGLISH", "dayCap": 7, "nightCap": 0, "status": "License issued (IL)", "lat": 41.763535, "lon": -87.701643}, {"id": "371203", "name": "KINDERCARE LEARNING CENTER 301584", "street": "1501 S STATE ST", "city": "CHICAGO", "zip": "60605", "phone": "3129131557", "facilityType": "DCC", "dayAge": "6W TO 12Y", "nightAge": "0", "lang1": "ENGLISH", "dayCap": 141, "nightCap": 0, "status": "Pending renewal application (RN)", "lat": 41.861467, "lon": -87.627134}, {"id": "351365", "name": "ROBINSON, DELONDIA", "street": "2252 S CENTRAL PARK AVE", "city": "CHICAGO", "zip": "60623", "phone": "7735220521", "facilityType": "DCH", "dayAge": "6W TO 12Y", "nightAge": "0", "lang1": "ENGLISH", "dayCap": 8, "nightCap": 0, "status": "Pending renewal application (RN)", "lat": 41.850463, "lon": -87.715039}, {"id": "351519", "name": "HALLOM, GRACE M", "street": "6435 S WOOD ST", "city": "CHICAGO", "zip": "60636", "phone": "7739492475", "facilityType": "DCH", "dayAge": "6W TO 12Y", "nightAge": "6W TO 12Y", "lang1": "ENGLISH", "dayCap": 8, "nightCap": 8, "status": "License issued (IL)", "lat": 41.77694, "lon": -87.668954}, {"id": "355280", "name": "LASLEY, VALERIE A", "street": "8112 S BENNETT AVE", "city": "CHICAGO", "zip": "60617", "phone": "7733160363", "facilityType": "DCH", "dayAge": "6W TO 12Y", "nightAge": "6W TO 12Y", "lang1": "ENGLISH", "dayCap": 8, "nightCap": 8, "status": "License issued (IL)", "lat": 41.747692, "lon": -87.578416}, {"id": "355511", "name": "OVERTON, SHANNON D", "street": "7331 S SANGAMON ST", "city": "CHICAGO", "zip": "60621", "phone": "7738466600", "facilityType": "DCH", "dayAge": "6W TO 12Y", "nightAge": "6W TO 12Y", "lang1": "ENGLISH", "dayCap": 8, "nightCap": 8, "status": "License issued (IL)", "lat": 41.760926, "lon": -87.647866}, {"id": "356701", "name": "NICHOLAS, FREDDRICA Y", "street": "6950 S MAY ST", "city": "CHICAGO", "zip": "60621", "phone": "7734319337", "facilityType": "DCH", "dayAge": "6W TO 12Y", "nightAge": "6W TO 12Y", "lang1": "ENGLISH", "dayCap": 5, "nightCap": 5, "status": "License issued (IL)", "lat": 41.767786, "lon": -87.653051}, {"id": "357303", "name": "LAKEFRONT CHILDREN'S ACADEMY", "street": "400 E RANDOLPH ST FL 6B", "city": "CHICAGO", "zip": "60601", "phone": "3128191760", "facilityType": "DCC", "dayAge": "2Y TO 12Y", "nightAge": "0", "lang1": "ENGLISH", "dayCap": 49, "nightCap": 0, "status": "License issued (IL)", "lat": 41.884573, "lon": -87.619692}, {"id": "357437", "name": "LEWIS, BETTY J", "street": "4814 S CALUMET AVE FL 1", "city": "CHICAGO", "zip": "60615", "phone": "7735385381", "facilityType": "DCH", "dayAge": "6W TO 12Y", "nightAge": "6W TO 12Y", "lang1": "ENGLISH", "dayCap": 8, "nightCap": 8, "status": "License issued (IL)", "lat": 41.807237, "lon": -87.618174}, {"id": "359372", "name": "SMITH, ELMA L", "street": "5645 W WASHINGTON BLVD APT 2S", "city": "CHICAGO", "zip": "60644", "phone": "7738283277", "facilityType": "DCH", "dayAge": "6W TO 12Y", "nightAge": "6W TO 12Y", "lang1": "ENGLISH", "dayCap": 8, "nightCap": 8, "status": "License issued (IL)", "lat": 41.882158, "lon": -87.766797}, {"id": "362987", "name": "HOLMES, MEKKETTA L", "street": "11471 S CHURCH ST", "city": "CHICAGO", "zip": "60643", "phone": "7733838228", "facilityType": "DCH", "dayAge": "0  TO 12Y", "nightAge": "0  TO 12Y", "lang1": "ENGLISH", "dayCap": 8, "nightCap": 8, "status": "License issued (IL)", "lat": 41.685375, "lon": -87.668771}, {"id": "366094", "name": "SPENCER, RONISE R", "street": "8027 S ADA ST", "city": "CHICAGO", "zip": "60620", "phone": "7739664724", "facilityType": "DCH", "dayAge": "6W TO 12Y", "nightAge": "6W TO 12Y", "lang1": "ENGLISH", "dayCap": 8, "nightCap": 8, "status": "Pending renewal application (RN)", "lat": 41.748117, "lon": -87.657236}, {"id": "366673", "name": "HOLLEY, ELLENE", "street": "9106 S KINGSTON AVE", "city": "CHICAGO", "zip": "60617", "phone": "7736192394", "facilityType": "DCH", "dayAge": "6W TO 12Y", "nightAge": "6W TO 12Y", "lang1": "ENGLISH", "dayCap": 8, "nightCap": 8, "status": "License issued (IL)", "lat": 41.729769, "lon": -87.562244}, {"id": "371009", "name": "ZOUMAH, DENISE", "street": "7744 S MARYLAND AVE", "city": "CHICAGO", "zip": "60619", "phone": "7734190006", "facilityType": "DCH", "dayAge": "6W TO 12Y", "nightAge": "6W TO 12Y", "lang1": "ENGLISH", "dayCap": 8, "nightCap": 8, "status": "License issued (IL)", "lat": 41.754125, "lon": -87.604111}, {"id": "373798", "name": "HARRIS, PATRICIA A", "street": "4831 W VAN BUREN ST FL 1", "city": "CHICAGO", "zip": "60644", "phone": "7736777209", "facilityType": "DCH", "dayAge": "6W TO 12Y", "nightAge": "6W TO 12Y", "lang1": "ENGLISH", "dayCap": 8, "nightCap": 8, "status": "Pending renewal application (RN)", "lat": 41.874909, "lon": -87.745988}, {"id": "376713", "name": "ALEXANDER, PATRICIA", "street": "2558 W MARQUETTE RD APT 1", "city": "CHICAGO", "zip": "60629", "phone": "7732097765", "facilityType": "DCH", "dayAge": "6W TO 12Y", "nightAge": "6W TO 12Y", "lang1": "ENGLISH", "dayCap": 8, "nightCap": 8, "status": "License issued (IL)", "lat": 41.771971, "lon": -87.68763}, {"id": "378030", "name": "DAVIS, DANRETHER", "street": "5723 W SUPERIOR ST", "city": "CHICAGO", "zip": "60644", "phone": "3126329510", "facilityType": "DCH", "dayAge": "6W TO 12Y", "nightAge": "6W TO 12Y", "lang1": "ENGLISH", "dayCap": 8, "nightCap": 8, "status": "License issued (IL)", "lat": 41.893809, "lon": -87.768447}, {"id": "381287", "name": "ELLIS, FELICIA G", "street": "306 N LATROBE AVE APT 1", "city": "CHICAGO", "zip": "60644", "phone": "7084769779", "facilityType": "DCH", "dayAge": "6W TO 12Y", "nightAge": "6W TO 12Y", "lang1": "ENGLISH", "dayCap": 8, "nightCap": 8, "status": "License issued (IL)", "lat": 41.885846, "lon": -87.756566}, {"id": "382566", "name": "JACKSON, GLORIA A", "street": "1438 N LATROBE AVE", "city": "CHICAGO", "zip": "60651", "phone": "7734411655", "facilityType": "DCH", "dayAge": "6W TO 12Y", "nightAge": "6W TO 12Y", "lang1": "ENGLISH", "dayCap": 8, "nightCap": 8, "status": "Pending renewal application (RN)", "lat": 41.906572, "lon": -87.757194}, {"id": "385083", "name": "HILL, THERESA A", "street": "1714 W 107TH ST", "city": "CHICAGO", "zip": "60643", "phone": "7732531945", "facilityType": "DCH", "dayAge": "0  TO 12Y", "nightAge": "0  TO 12Y", "lang1": "ENGLISH", "dayCap": 8, "nightCap": 8, "status": "License issued (IL)", "lat": 41.699399, "lon": -87.665046}, {"id": "386008", "name": "THOMPSON, ROCHELLE", "street": "646 N SAWYER AVE", "city": "CHICAGO", "zip": "60624", "phone": "7737876222", "facilityType": "DCH", "dayAge": "6W TO 12Y", "nightAge": "6W TO 12Y", "lang1": "ENGLISH", "dayCap": 8, "nightCap": 8, "status": "License issued (IL)", "lat": 41.892747, "lon": -87.70777}, {"id": "388866", "name": "BOOKER, JULIET", "street": "10135 S SANGAMON ST", "city": "CHICAGO", "zip": "60643", "phone": "7732981353", "facilityType": "DCH", "dayAge": "6W TO 12Y", "nightAge": "6W TO 12Y", "lang1": "ENGLISH", "dayCap": 8, "nightCap": 8, "status": "License issued (IL)", "lat": 41.709872, "lon": -87.646481}, {"id": "389394", "name": "CORNERSTONE CHILDREN'S LEARNING CTR", "street": "1111 N WELLS ST STE 200", "city": "CHICAGO", "zip": "60610", "phone": "3125738900", "facilityType": "DCC", "dayAge": "6W TO 6Y", "nightAge": "0", "lang1": "ENGLISH", "dayCap": 108, "nightCap": 0, "status": "License issued (IL)", "lat": 41.90244, "lon": -87.634346}, {"id": "391140", "name": "JONES, STERMA J", "street": "7609 S PAXTON AVE", "city": "CHICAGO", "zip": "60649", "phone": "7739781483", "facilityType": "DCH", "dayAge": "6W TO 12Y", "nightAge": "0", "lang1": "ENGLISH", "dayCap": 6, "nightCap": 0, "status": "Pending renewal application (RN)", "lat": 41.756926, "lon": -87.571148}, {"id": "395922", "name": "PARKER, JANIE S", "street": "1011 N CENTRAL PARK AVE", "city": "CHICAGO", "zip": "60651", "phone": "3125382355", "facilityType": "DCH", "dayAge": "6W TO 12Y", "nightAge": "6W TO 12Y", "lang1": "ENGLISH", "dayCap": 8, "nightCap": 4, "status": "License issued (IL)", "lat": 41.899339, "lon": -87.716365}, {"id": "399877", "name": "ELLIOTT, BETTY", "street": "8120 S KIMBARK AVE", "city": "CHICAGO", "zip": "60619", "phone": "7732218802", "facilityType": "DCH", "dayAge": "6W TO 12Y", "nightAge": "6W TO 12Y", "lang1": "ENGLISH", "dayCap": 8, "nightCap": 8, "status": "Pending renewal application (RN)", "lat": 41.747353, "lon": -87.593034}, {"id": "401331", "name": "JONES-EVANS, VALENCIA", "street": "9551 S PRAIRIE AVE", "city": "CHICAGO", "zip": "60628", "phone": "7734689063", "facilityType": "DCH", "dayAge": "6W TO 12Y", "nightAge": "6W TO 12Y", "lang1": "ENGLISH", "dayCap": 8, "nightCap": 8, "status": "Pending renewal application (RN)", "lat": 41.720655, "lon": -87.617665}, {"id": "402977", "name": "PERKINS, DENISE", "street": "8300 S WOLCOTT AVE", "city": "CHICAGO", "zip": "60620", "phone": "7737794531", "facilityType": "DCH", "dayAge": "6W TO 12Y", "nightAge": "6W TO 12Y", "lang1": "ENGLISH", "dayCap": 8, "nightCap": 8, "status": "License issued (IL)", "lat": 41.742915, "lon": -87.670609}, {"id": "404174", "name": "SCOTT, DIANE", "street": "325 E 107TH ST", "city": "CHICAGO", "zip": "60628", "phone": "7735687004", "facilityType": "DCH", "dayAge": "4Y TO 12Y", "nightAge": "4Y TO 12Y", "lang1": "ENGLISH", "dayCap": 6, "nightCap": 6, "status": "License issued (IL)", "lat": 41.699932, "lon": -87.615016}, {"id": "405484", "name": "BREWER, ALICIA T", "street": "1137 N SACRAMENTO AVE", "city": "CHICAGO", "zip": "60622", "phone": "6305701079", "facilityType": "DCH", "dayAge": "6W TO 12Y", "nightAge": "6W TO 12Y", "lang1": "ENGLISH", "dayCap": 8, "nightCap": 8, "status": "Pending renewal application (RN)", "lat": 41.902152, "lon": -87.701721}, {"id": "406743", "name": "WILLIAMS, TINA M", "street": "8111 S STEWART AVE", "city": "CHICAGO", "zip": "60620", "phone": "8722447997", "facilityType": "DCH", "dayAge": "0  TO 12Y", "nightAge": "0  TO 12Y", "lang1": "ENGLISH", "dayCap": 8, "nightCap": 8, "status": "Pending renewal application (RN)", "lat": 41.746932, "lon": -87.634123}, {"id": "408852", "name": "JACKSON, KYSHA M", "street": "4129 W CERMAK RD FL 1", "city": "CHICAGO", "zip": "60623", "phone": "7737627061", "facilityType": "DCH", "dayAge": "6W TO 12Y", "nightAge": "6W TO 12Y", "lang1": "ENGLISH", "dayCap": 8, "nightCap": 8, "status": "License issued (IL)", "lat": 41.851344, "lon": -87.728274}, {"id": "410340", "name": "JONES, ROSE M", "street": "1351 N MENARD AVE FL 2", "city": "CHICAGO", "zip": "60651", "phone": "7734171996", "facilityType": "DCH", "dayAge": "6W TO 12Y", "nightAge": "0", "lang1": "ENGLISH", "dayCap": 8, "nightCap": 0, "status": "License issued (IL)", "lat": 41.90521, "lon": -87.770537}, {"id": "411206", "name": "BANKS, TIFFANY S", "street": "5425 W HADDON AVE", "city": "CHICAGO", "zip": "60651", "phone": "7732611366", "facilityType": "DCH", "dayAge": "6W TO 12Y", "nightAge": "6W TO 12Y", "lang1": "ENGLISH", "dayCap": 8, "nightCap": 7, "status": "License issued (IL)", "lat": 41.901215, "lon": -87.761621}, {"id": "411624", "name": "HENDERSON, SHANTAILE", "street": "7227 S CLAREMONT AVE", "city": "CHICAGO", "zip": "60636", "phone": "3123949047", "facilityType": "DCH", "dayAge": "6W TO 12Y", "nightAge": "6W TO 12Y", "lang1": "ENGLISH", "dayCap": 8, "nightCap": 8, "status": "License issued (IL)", "lat": 41.762051, "lon": -87.681768}, {"id": "411679", "name": "RIDDLE, ATISI D", "street": "7823 S CHAMPLAIN AVE", "city": "CHICAGO", "zip": "60619", "phone": "3122823097", "facilityType": "DCH", "dayAge": "6W TO 12Y", "nightAge": "6W TO 12Y", "lang1": "ENGLISH", "dayCap": 8, "nightCap": 8, "status": "License issued (IL)", "lat": 41.752692, "lon": -87.608829}, {"id": "411975", "name": "CLADY, LASHAWN D", "street": "7337 S CRANDON AVE", "city": "CHICAGO", "zip": "60649", "phone": "7734575912", "facilityType": "DCH", "dayAge": "6W TO 12Y", "nightAge": "6W TO 12Y", "lang1": "ENGLISH", "dayCap": 8, "nightCap": 8, "status": "License issued (IL)", "lat": 41.761911, "lon": -87.568786}, {"id": "412457", "name": "CUSHENBERRY, KANDY R", "street": "3857 W GRENSHAW ST", "city": "CHICAGO", "zip": "60624", "phone": "7734034742", "facilityType": "DCH", "dayAge": "0  TO 12Y", "nightAge": "0  TO 12Y", "lang1": "ENGLISH", "dayCap": 8, "nightCap": 8, "status": "License issued (IL)", "lat": 41.867062, "lon": -87.721914}, {"id": "412496", "name": "HOLMAN, FREDA F", "street": "3827 W POLK ST FL 1", "city": "CHICAGO", "zip": "60624", "phone": "7738078001", "facilityType": "DCH", "dayAge": "6W TO 12Y", "nightAge": "6W TO 12Y", "lang1": "ENGLISH", "dayCap": 8, "nightCap": 8, "status": "Pending renewal application (RN)", "lat": 41.870713, "lon": -87.721264}, {"id": "413138", "name": "ALL ABOUT KIDS LEARNING ACADEMY INC", "street": "514 E 75TH ST", "city": "CHICAGO", "zip": "60619", "phone": "7738922800", "facilityType": "DCC", "dayAge": "6W TO 12Y", "nightAge": "0", "lang1": "ENGLISH", "dayCap": 124, "nightCap": 0, "status": "License issued (IL)", "lat": 41.758519, "lon": -87.612072}, {"id": "414797", "name": "JOHNSON, SHAMEKA T", "street": "7426 S LOWE AVE", "city": "CHICAGO", "zip": "60621", "phone": "7739664619", "facilityType": "DCH", "dayAge": "6W TO 12Y", "nightAge": "6W TO 12Y", "lang1": "ENGLISH", "dayCap": 8, "nightCap": 8, "status": "License issued (IL)", "lat": 41.759539, "lon": -87.640687}, {"id": "414798", "name": "JONES, DEBBIE R", "street": "10832 S PEORIA ST", "city": "CHICAGO", "zip": "60643", "phone": "7733222009", "facilityType": "DCH", "dayAge": "6W TO 12Y", "nightAge": "6W TO 12Y", "lang1": "ENGLISH", "dayCap": 8, "nightCap": 8, "status": "Pending renewal application (RN)", "lat": 41.697274, "lon": -87.645041}, {"id": "415323", "name": "LITTLE LEADERS OF TOMORROW DAY CARE CTR", "street": "301 N MAYFIELD AVE", "city": "CHICAGO", "zip": "60644", "phone": "7733788302", "facilityType": "DCC", "dayAge": "2Y TO 12Y", "nightAge": "0", "lang1": "ENGLISH", "dayCap": 84, "nightCap": 0, "status": "License issued (IL)", "lat": 41.885673, "lon": -87.771897}, {"id": "416197", "name": "MILES, ANGELA", "street": "1421 E 68TH ST", "city": "CHICAGO", "zip": "60637", "phone": "7737087736", "facilityType": "DCH", "dayAge": "6W TO 12Y", "nightAge": "6W TO 12Y", "lang1": "ENGLISH", "dayCap": 8, "nightCap": 8, "status": "License issued (IL)", "lat": 41.771419, "lon": -87.590224}, {"id": "416231", "name": "WILCOX, DESAREE D", "street": "8037 S INDIANA AVE", "city": "CHICAGO", "zip": "60619", "phone": "3127538831", "facilityType": "DCH", "dayAge": "0  TO 12Y", "nightAge": "0  TO 12Y", "lang1": "ENGLISH", "dayCap": 7, "nightCap": 7, "status": "Refuse to Renew (RR)", "lat": 41.748525, "lon": -87.619621}, {"id": "361742", "name": "HIGHER LEARNING DAYCARE & EDUCATION CTR", "street": "2526 E 73RD ST", "city": "CHICAGO", "zip": "60649", "phone": "7737341251", "facilityType": "DCC", "dayAge": "6W TO 6Y", "nightAge": "0", "lang1": "ENGLISH", "dayCap": 62, "nightCap": 0, "status": "License issued (IL)", "lat": 41.762949, "lon": -87.562954}, {"id": "369739", "name": "CAMPBELL, RENETA D", "street": "7759 S EAST END AVE", "city": "CHICAGO", "zip": "60649", "phone": "7086314812", "facilityType": "DCH", "dayAge": "6W TO 12Y", "nightAge": "6W TO 12Y", "lang1": "ENGLISH", "dayCap": 8, "nightCap": 8, "status": "License issued (IL)", "lat": 41.754086, "lon": -87.583296}, {"id": "370234", "name": "MAXWELL, JANINE", "street": "10128 S GREEN ST", "city": "CHICAGO", "zip": "60643", "phone": "7733088816", "facilityType": "DCH", "dayAge": "6W TO 12Y", "nightAge": "6W TO 12Y", "lang1": "ENGLISH", "dayCap": 8, "nightCap": 8, "status": "License issued (IL)", "lat": 41.709998, "lon": -87.644194}, {"id": "374826", "name": "JACKSON, ANNETTE M", "street": "9301 S KING DR", "city": "CHICAGO", "zip": "60619", "phone": "7732910078", "facilityType": "DCH", "dayAge": "6W TO 12Y", "nightAge": "6W TO 12Y", "lang1": "ENGLISH", "dayCap": 8, "nightCap": 8, "status": "License issued (IL)", "lat": 41.725485, "lon": -87.614159}, {"id": "378985", "name": "WILLIAMS, MIA M", "street": "3652 S INDIANA AVE FL 1", "city": "CHICAGO", "zip": "60653", "phone": "7738424620", "facilityType": "DCH", "dayAge": "6W TO 12Y", "nightAge": "6W TO 12Y", "lang1": "ENGLISH", "dayCap": 8, "nightCap": 6, "status": "License issued (IL)", "lat": 41.828453, "lon": -87.62178}, {"id": "379136", "name": "BALI, SHEILA", "street": "11619 S ARTESIAN AVE", "city": "CHICAGO", "zip": "60655", "phone": "7732385269", "facilityType": "DCH", "dayAge": "6W TO 12Y", "nightAge": "6W TO 12Y", "lang1": "ENGLISH", "dayCap": 8, "nightCap": 8, "status": "License issued (IL)", "lat": 41.682342, "lon": -87.682008}, {"id": "379353", "name": "DAVIS, SHERRELL L", "street": "8605 S ADA ST", "city": "CHICAGO", "zip": "60620", "phone": "7733224441", "facilityType": "DCH", "dayAge": "0  TO 12Y", "nightAge": "0  TO 12Y", "lang1": "ENGLISH", "dayCap": 8, "nightCap": 8, "status": "Pending renewal application (RN)", "lat": 41.737532, "lon": -87.656955}, {"id": "384028", "name": "JACKSON, DADRIAN", "street": "8942 S WALLACE ST", "city": "CHICAGO", "zip": "60620", "phone": "7739838285", "facilityType": "DCH", "dayAge": "6W TO 12Y", "nightAge": "6W TO 12Y", "lang1": "ENGLISH", "dayCap": 8, "nightCap": 8, "status": "License issued (IL)", "lat": 41.731817, "lon": -87.638711}, {"id": "386501", "name": "GREEN, DEBORAH L", "street": "4946 W JACKSON BLVD FL 1", "city": "CHICAGO", "zip": "60644", "phone": "7735100513", "facilityType": "DCH", "dayAge": "6W TO 12Y", "nightAge": "6W TO 12Y", "lang1": "ENGLISH", "dayCap": 8, "nightCap": 6, "status": "License issued (IL)", "lat": 41.8768, "lon": -87.748258}, {"id": "391577", "name": "THE CHILDREN'S CTR FOR CREATIVE LEARNING", "street": "7954 S WESTERN AVE # 7958", "city": "CHICAGO", "zip": "60620", "phone": "7734714927", "facilityType": "DCC", "dayAge": "6W TO 6Y", "nightAge": "0", "lang1": "ENGLISH", "dayCap": 103, "nightCap": 0, "status": "Pending renewal application (RN)", "lat": 41.748862, "lon": -87.682896}, {"id": "392386", "name": "BARNES, ERMA J", "street": "7932 S WOLCOTT AVE", "city": "CHICAGO", "zip": "60620", "phone": "7739948016", "facilityType": "DCH", "dayAge": "0  TO 12Y", "nightAge": "0  TO 12Y", "lang1": "ENGLISH", "dayCap": 8, "nightCap": 8, "status": "License issued (IL)", "lat": 41.74934, "lon": -87.670766}, {"id": "393244", "name": "SPARKS, ROMUNDA D", "street": "6523 S MAPLEWOOD AVE", "city": "CHICAGO", "zip": "60629", "phone": "7737767944", "facilityType": "DCH", "dayAge": "6W TO 12Y", "nightAge": "6W TO 12Y", "lang1": "ENGLISH", "dayCap": 8, "nightCap": 8, "status": "License issued (IL)", "lat": 41.775123, "lon": -87.687118}, {"id": "396638", "name": "WOODS, RHONDA", "street": "8725 S MORGAN ST", "city": "CHICAGO", "zip": "60620", "phone": "7738867578", "facilityType": "DCH", "dayAge": "6W TO 12Y", "nightAge": "6W TO 12Y", "lang1": "ENGLISH", "dayCap": 8, "nightCap": 8, "status": "License issued (IL)", "lat": 41.735298, "lon": -87.648402}, {"id": "398126", "name": "BLOOMING BUD DAY CARE INC", "street": "5715 N LINCOLN AVE", "city": "CHICAGO", "zip": "60659", "phone": "7732752414", "facilityType": "DCC", "dayAge": "6W TO 12Y", "nightAge": "0", "lang1": "ENGLISH", "dayCap": 113, "nightCap": 0, "status": "License issued (IL)", "lat": 41.98533, "lon": -87.698747}, {"id": "400969", "name": "STEELE-BROOKS, KARREN A", "street": "8048 S MICHIGAN AVE", "city": "CHICAGO", "zip": "60619", "phone": "7732889690", "facilityType": "DCH", "dayAge": "15M TO 12Y", "nightAge": "15M TO 12Y", "lang1": "ENGLISH", "dayCap": 8, "nightCap": 8, "status": "License issued (IL)", "lat": 41.748286, "lon": -87.621385}, {"id": "401925", "name": "FERGUSON-DAVIS, PAULA A", "street": "1520 E 72ND PL", "city": "CHICAGO", "zip": "60619", "phone": "7738958347", "facilityType": "DCH", "dayAge": "6W TO 12Y", "nightAge": "6W TO 12Y", "lang1": "ENGLISH", "dayCap": 6, "nightCap": 6, "status": "License issued (IL)", "lat": 41.763361, "lon": -87.588146}, {"id": "403684", "name": "RAVENSWOOD COMMUNITY CHILD CARE CENTER", "street": "4908 N DAMEN AVE", "city": "CHICAGO", "zip": "60625", "phone": "7732714495", "facilityType": "DCC", "dayAge": "6W TO 6Y", "nightAge": "0", "lang1": "ENGLISH", "dayCap": 45, "nightCap": 0, "status": "License issued (IL)", "lat": 41.970849, "lon": -87.679325}, {"id": "404029", "name": "KINDERCARE LEARNING CENTER 301714", "street": "2044 FRANCISCAN WAY", "city": "WEST CHICAGO", "zip": "60185", "phone": "6305623904", "facilityType": "DCC", "dayAge": "6W TO 12Y", "nightAge": "0", "lang1": "ENGLISH", "dayCap": 163, "nightCap": 0, "status": "License issued (IL)", "lat": 41.919539, "lon": -88.209913}, {"id": "406710", "name": "MORROW, ARMENTA R", "street": "1004 N KARLOV AVE FL 1", "city": "CHICAGO", "zip": "60651", "phone": "7734865293", "facilityType": "DCH", "dayAge": "6W TO 12Y", "nightAge": "6W TO 12Y", "lang1": "ENGLISH", "dayCap": 8, "nightCap": 8, "status": "License issued (IL)", "lat": 41.899157, "lon": -87.728737}, {"id": "407748", "name": "CRAWFORD, ROSIE L", "street": "1114 N LARAMIE AVE FL 2", "city": "CHICAGO", "zip": "60651", "phone": "3129532681", "facilityType": "DCH", "dayAge": "6W TO 12Y", "nightAge": "6W TO 12Y", "lang1": "ENGLISH", "dayCap": 6, "nightCap": 6, "status": "License issued (IL)", "lat": 41.900656, "lon": -87.755815}, {"id": "409971", "name": "ADELEYE, FADEKE S", "street": "282 PLEASANT DR", "city": "CHICAGO HTS", "zip": "60411", "phone": "7087562630", "facilityType": "GDC", "dayAge": "6W TO 12Y", "nightAge": "0", "lang1": "ENGLISH", "dayCap": 12, "nightCap": 0, "status": "License issued (IL)", "lat": 41.532505, "lon": -87.653879}, {"id": "412108", "name": "STEPPING STONE EARLY CHILDHOOD LEARNING", "street": "1300 E 75TH ST", "city": "CHICAGO", "zip": "60619", "phone": "7734930000", "facilityType": "DCC", "dayAge": "2Y TO 6Y", "nightAge": "0", "lang1": "ENGLISH", "dayCap": 26, "nightCap": 0, "status": "License issued (IL)", "lat": 41.758762, "lon": -87.593151}, {"id": "413713", "name": "MUHAMMAD, PATRICIA", "street": "7307 S MARYLAND AVE", "city": "CHICAGO", "zip": "60619", "phone": "7733558861", "facilityType": "DCH", "dayAge": "6W TO 12Y", "nightAge": "6W TO 12Y", "lang1": "ENGLISH", "dayCap": 8, "nightCap": 8, "status": "License issued (IL)", "lat": 41.762122, "lon": -87.604155}, {"id": "414169", "name": "MC CLINTON, CARRIE F", "street": "7916 S SAGINAW AVE FL 1", "city": "CHICAGO", "zip": "60617", "phone": "7737318913", "facilityType": "DCH", "dayAge": "6W TO 12Y", "nightAge": "6W TO 12Y", "lang1": "ENGLISH", "dayCap": 8, "nightCap": 8, "status": "Pending renewal application (RN)", "lat": 41.751099, "lon": -87.560235}, {"id": "414623", "name": "IT TAKES A VILLAGE SERVICES INC", "street": "4000 W DIVISION ST", "city": "CHICAGO", "zip": "60651", "phone": "7732761730", "facilityType": "DCC", "dayAge": "3Y TO 6Y", "nightAge": "0", "lang1": "ENGLISH", "dayCap": 126, "nightCap": 0, "status": "License issued (IL)", "lat": 41.902726, "lon": -87.726379}, {"id": "417130", "name": "LEWIS, REGINA", "street": "724 N LOCKWOOD AVE", "city": "CHICAGO", "zip": "60644", "phone": "3128608883", "facilityType": "DCH", "dayAge": "6W TO 12Y", "nightAge": "6W TO 12Y", "lang1": "ENGLISH", "dayCap": 8, "nightCap": 8, "status": "License issued (IL)", "lat": 41.89341, "lon": -87.758074}, {"id": "417792", "name": "RAINFOREST LEARNING CENTER, INC", "street": "1401 S WABASH AVE", "city": "CHICAGO", "zip": "60605", "phone": "8479895743", "facilityType": "DCC", "dayAge": "6W TO 6Y", "nightAge": "0", "lang1": "ENGLISH", "dayCap": 94, "nightCap": 0, "status": "License issued (IL)", "lat": 41.864127, "lon": -87.625674}, {"id": "419208", "name": "SMITH, SHIREASE A", "street": "5228 S MORGAN ST", "city": "CHICAGO", "zip": "60609", "phone": "7084917937", "facilityType": "DCH", "dayAge": "0  TO 12Y", "nightAge": "0  TO 12Y", "lang1": "ENGLISH", "dayCap": 8, "nightCap": 8, "status": "License issued (IL)", "lat": 41.798822, "lon": -87.65021}, {"id": "419222", "name": "CROWDER, WANDA F", "street": "1647 N NARRAGANSETT AVE", "city": "CHICAGO", "zip": "60639", "phone": "7738894209", "facilityType": "DCH", "dayAge": "6W TO 12Y", "nightAge": "6W TO 12Y", "lang1": "ENGLISH", "dayCap": 8, "nightCap": 0, "status": "License issued (IL)", "lat": 41.910347, "lon": -87.784962}, {"id": "419753", "name": "WATSON, LINDA A", "street": "1641 S HOMAN AVE FL 1", "city": "CHICAGO", "zip": "60623", "phone": "7738798800", "facilityType": "DCH", "dayAge": "6W TO 12Y", "nightAge": "6W TO 12Y", "lang1": "ENGLISH", "dayCap": 8, "nightCap": 8, "status": "License issued (IL)", "lat": 41.857824, "lon": -87.710225}, {"id": "421994", "name": "AGBEKO, VICTORIA M", "street": "4919 S VINCENNES AVE UNIT 2", "city": "CHICAGO", "zip": "60615", "phone": "7738424087", "facilityType": "DCH", "dayAge": "6W TO 12Y", "nightAge": "6W TO 12Y", "lang1": "ENGLISH", "dayCap": 8, "nightCap": 8, "status": "License issued (IL)", "lat": 41.805414, "lon": -87.613792}, {"id": "423075", "name": "BROWN, SHAWNDEL L", "street": "8115 S HARPER AVE", "city": "CHICAGO", "zip": "60619", "phone": "7737680207", "facilityType": "DCH", "dayAge": "0  TO 12Y", "nightAge": "0  TO 12Y", "lang1": "ENGLISH", "dayCap": 7, "nightCap": 7, "status": "Refuse to Renew (RR)", "lat": 41.747532, "lon": -87.587024}, {"id": "423985", "name": "JONES, PAULETTE", "street": "6749 S CHAMPLAIN AVE FL 2", "city": "CHICAGO", "zip": "60637", "phone": "7735522393", "facilityType": "DCH", "dayAge": "6W TO 12Y", "nightAge": "6W TO 12Y", "lang1": "ENGLISH", "dayCap": 8, "nightCap": 8, "status": "License issued (IL)", "lat": 41.771958, "lon": -87.6093}, {"id": "426513", "name": "JACKSON, GWENDOLYN R", "street": "1003 W 116TH ST", "city": "CHICAGO", "zip": "60643", "phone": "7739323168", "facilityType": "DCH", "dayAge": "6W TO 12Y", "nightAge": "6W TO 12Y", "lang1": "ENGLISH", "dayCap": 8, "nightCap": 8, "status": "Pending renewal application (RN)", "lat": 41.683141, "lon": -87.647106}, {"id": "432544", "name": "JOHNSON, ANDREW", "street": "7025 S MAPLEWOOD AVE", "city": "CHICAGO", "zip": "60629", "phone": "7734068501", "facilityType": "DCH", "dayAge": "6W TO 12Y", "nightAge": "6W TO 12Y", "lang1": "ENGLISH", "dayCap": 8, "nightCap": 8, "status": "License issued (IL)", "lat": 41.765719, "lon": -87.686864}, {"id": "436052", "name": "SMITH, PAMELA", "street": "1059 N LAVERGNE AVE", "city": "CHICAGO", "zip": "60651", "phone": "7733790349", "facilityType": "DCH", "dayAge": "6W TO 12Y", "nightAge": "6W TO 12Y", "lang1": "ENGLISH", "dayCap": 7, "nightCap": 7, "status": "Pending renewal application (RN)", "lat": 41.900132, "lon": -87.750748}, {"id": "438254", "name": "LA BRANCHE'S CHILDCARE CENTER", "street": "1644 VINCENNES AVE", "city": "CHICAGO HTS", "zip": "60411", "phone": "7087564010", "facilityType": "DCC", "dayAge": "6W TO 12Y", "nightAge": "0", "lang1": "ENGLISH", "dayCap": 80, "nightCap": 0, "status": "Pending renewal application (RN)", "lat": 41.501741, "lon": -87.637678}, {"id": "438545", "name": "MITCHELL, MARTHA", "street": "29 S PARKSIDE AVE FL 2", "city": "CHICAGO", "zip": "60644", "phone": "7732611509", "facilityType": "DCH", "dayAge": "6W TO 12Y", "nightAge": "6W TO 12Y", "lang1": "ENGLISH", "dayCap": 8, "nightCap": 6, "status": "License issued (IL)", "lat": 41.879347, "lon": -87.766381}, {"id": "440870", "name": "WATKINS, LISA", "street": "12456 S MICHIGAN AVE", "city": "CHICAGO", "zip": "60628", "phone": "7086120141", "facilityType": "DCH", "dayAge": "6W TO 12Y", "nightAge": "6W TO 12Y", "lang1": "ENGLISH", "dayCap": 8, "nightCap": 8, "status": "License issued (IL)", "lat": 41.667276, "lon": -87.620203}, {"id": "003590", "name": "TRUMAN COLLEGE CHILD DEV LAB SCHOOL", "street": "1145 WEST WILSON", "city": "CHICAGO", "zip": "60640", "phone": "7739074740", "facilityType": "DCC", "dayAge": "2Y TO 9Y", "nightAge": "0", "lang1": "ENGLISH", "dayCap": 56, "nightCap": 0, "status": "Pending renewal application (RN)", "lat": 41.965324, "lon": -87.659063}, {"id": "007602", "name": "GADS HILL CENTER AFTER SCHOOL", "street": "1919 WEST CULLERTON", "city": "CHICAGO", "zip": "60608", "phone": "3122260963", "facilityType": "DCC", "dayAge": "5Y TO 12Y", "nightAge": "0", "lang1": "ENGLISH", "dayCap": 74, "nightCap": 0, "status": "Pending renewal application (RN)", "lat": 41.854894, "lon": -87.673969}, {"id": "010633", "name": "MCCORMICK TRIBUNE YMCA", "street": "1834 N LAWNDALE", "city": "CHICAGO", "zip": "60647", "phone": "7733262823", "facilityType": "DCC", "dayAge": "2Y TO 6Y", "nightAge": "0", "lang1": "ENGLISH", "dayCap": 48, "nightCap": 0, "status": "License issued (IL)", "lat": 41.914135, "lon": -87.7192}, {"id": "017551", "name": "ROGERS PARK MONTESSORI SCHOOL", "street": "1800 W BALMORAL AVE", "city": "CHICAGO", "zip": "60640", "phone": "7732711700", "facilityType": "DCC", "dayAge": "2Y TO 3Y", "nightAge": "0", "lang1": "ENGLISH", "dayCap": 48, "nightCap": 0, "status": "License issued (IL)", "lat": 41.979802, "lon": -87.674818}, {"id": "020411", "name": "THE LUTHERAN DAY NURSERY OF CHICAGO", "street": "1802 N FAIRFIELD AVE", "city": "CHICAGO", "zip": "60647", "phone": "7734864222", "facilityType": "DCC", "dayAge": "2Y TO 12Y", "nightAge": "0", "lang1": "ENGLISH", "dayCap": 82, "nightCap": 0, "status": "License issued (IL)", "lat": 41.914008, "lon": -87.695949}, {"id": "029396", "name": "MALCOLM X COLLEGE CHILD DEVELOPMENT CENT", "street": "1900 W JACKSON BLVD", "city": "CHICAGO", "zip": "60612", "phone": "3128507490", "facilityType": "DCC", "dayAge": "2Y TO 5Y", "nightAge": "0", "lang1": "ENGLISH", "dayCap": 52, "nightCap": 0, "status": "License issued (IL)", "lat": 41.877561, "lon": -87.674125}, {"id": "080030", "name": "LAKE SHORE SCHOOL", "street": "5611 N CLARK ST # 21", "city": "CHICAGO", "zip": "60660", "phone": "7735616707", "facilityType": "DCC", "dayAge": "6W TO 5Y", "nightAge": "0", "lang1": "ENGLISH", "dayCap": 122, "nightCap": 0, "status": "License issued (IL)", "lat": 41.983858, "lon": -87.668758}, {"id": "111640", "name": "RAUNER YMCA", "street": "2700 S WESTERN AVE", "city": "CHICAGO", "zip": "60608", "phone": "3125060130", "facilityType": "DCC", "dayAge": "2Y TO 12Y", "nightAge": "0", "lang1": "ENGLISH", "dayCap": 128, "nightCap": 0, "status": "Pending renewal application (RN)", "lat": 41.84398, "lon": -87.685473}, {"id": "237323", "name": "EYES ON THE FUTURE CHILD CARE", "street": "6969 N RAVENSWOOD AVE", "city": "CHICAGO", "zip": "60626", "phone": "7739730771", "facilityType": "DCC", "dayAge": "6W TO 5Y", "nightAge": "0", "lang1": "ENGLISH", "dayCap": 213, "nightCap": 0, "status": "License issued (IL)", "lat": 42.008288, "lon": -87.675245}, {"id": "239134", "name": "THE GUADALUPE REYES CHILDREN & FAMILY C.", "street": "1951 W. 19TH STREET", "city": "CHICAGO", "zip": "60608", "phone": "3129972021", "facilityType": "DCC", "dayAge": "6W TO 12Y", "nightAge": "0", "lang1": "ENGLISH", "dayCap": 211, "nightCap": 0, "status": "Pending renewal application (RN)", "lat": 41.855794, "lon": -87.674743}, {"id": "250739", "name": "GUADALUPANO FAMILY CENTER", "street": "1814 S PAULINA ST", "city": "CHICAGO", "zip": "60608", "phone": "3126663883", "facilityType": "DCC", "dayAge": "2Y TO 12Y", "nightAge": "0", "lang1": "ENGLISH", "dayCap": 197, "nightCap": 0, "status": "Pending renewal application (RN)", "lat": 41.857253, "lon": -87.668713}, {"id": "264807", "name": "ERIE COMMUNITY CENTER", "street": "1701 W SUPERIOR ST", "city": "CHICAGO", "zip": "60622", "phone": "3125635800", "facilityType": "DCC", "dayAge": "2Y TO 12Y", "nightAge": "0", "lang1": "ENGLISH", "dayCap": 223, "nightCap": 0, "status": "Pending renewal application (RN)", "lat": 41.895059, "lon": -87.669771}, {"id": "346332", "name": "MARTINEZ, ANGELICA", "street": "9813 S AVENUE M", "city": "CHICAGO", "zip": "60617", "phone": "7737219509", "facilityType": "DCH", "dayAge": "6W TO 12Y", "nightAge": "6W TO 12Y", "lang1": "ENGLISH", "dayCap": 8, "nightCap": 8, "status": "License issued (IL)", "lat": 41.717338, "lon": -87.537621}, {"id": "360266", "name": "THOMAS, GINA", "street": "7225 S PRAIRIE AVE", "city": "CHICAGO", "zip": "60619", "phone": "7738486155", "facilityType": "GDC", "dayAge": "6W TO 12Y", "nightAge": "6W TO 12Y", "lang1": "ENGLISH", "dayCap": 12, "nightCap": 12, "status": "License issued (IL)", "lat": 41.763351, "lon": -87.618348}, {"id": "364156", "name": "RUIZ, JUANA", "street": "3140 W 54TH ST", "city": "CHICAGO", "zip": "60632", "phone": "7736794371", "facilityType": "DCH", "dayAge": "6W TO 12Y", "nightAge": "0", "lang1": "ENGLISH", "dayCap": 8, "nightCap": 0, "status": "License issued (IL)", "lat": 41.795425, "lon": -87.701932}, {"id": "370120", "name": "GLASSE, LAURA A", "street": "6531 N ROCKWELL ST", "city": "CHICAGO", "zip": "60645", "phone": "7733305829", "facilityType": "DCH", "dayAge": "6W TO 12Y", "nightAge": "0", "lang1": "ENGLISH", "dayCap": 8, "nightCap": 0, "status": "Pending renewal application (RN)", "lat": 42.000044, "lon": -87.694748}, {"id": "377812", "name": "LITTLE TYKES II DC INC", "street": "1723 W 35TH ST", "city": "CHICAGO", "zip": "60609", "phone": "7735791791", "facilityType": "DCC", "dayAge": "15M TO 5Y", "nightAge": "0", "lang1": "ENGLISH", "dayCap": 57, "nightCap": 0, "status": "License issued (IL)", "lat": 41.830406, "lon": -87.668871}, {"id": "379936", "name": "SOUTH-EAST ASIA CENTER, BROADWAY", "street": "5120 N BROADWAY ST", "city": "CHICAGO", "zip": "60640", "phone": "7739897433", "facilityType": "DCC", "dayAge": "2Y TO 5Y", "nightAge": "0", "lang1": "ENGLISH", "dayCap": 36, "nightCap": 0, "status": "Pending renewal application (RN)", "lat": 41.975367, "lon": -87.659917}, {"id": "380373", "name": "RUBIO, LUCIA P", "street": "5522 W NEWPORT AVE", "city": "CHICAGO", "zip": "60641", "phone": "7732825349", "facilityType": "GDC", "dayAge": "6W TO 12Y", "nightAge": "6W TO 12Y", "lang1": "ENGLISH", "dayCap": 12, "nightCap": 8, "status": "License issued (IL)", "lat": 41.943215, "lon": -87.76499}, {"id": "387943", "name": "FERRER, MARIA G", "street": "5548 S TRIPP AVE", "city": "CHICAGO", "zip": "60629", "phone": "7739547519", "facilityType": "DCH", "dayAge": "6W TO 12Y", "nightAge": "0", "lang1": "ENGLISH", "dayCap": 8, "nightCap": 0, "status": "License issued (IL)", "lat": 41.792026, "lon": -87.72933}, {"id": "403710", "name": "KIDDIE GARDEN LITTLE ANGELS DCC", "street": "4235 S KEDZIE AVE", "city": "CHICAGO", "zip": "60632", "phone": "7738431976", "facilityType": "DCC", "dayAge": "6W TO 12Y", "nightAge": "0", "lang1": "ENGLISH", "dayCap": 77, "nightCap": 0, "status": "License issued (IL)", "lat": 41.816197, "lon": -87.704219}, {"id": "415793", "name": "COPPAGE, VELMA J", "street": "3952 W OHIO ST", "city": "CHICAGO", "zip": "60624", "phone": "7733078047", "facilityType": "DCH", "dayAge": "6W TO 12Y", "nightAge": "6W TO 12Y", "lang1": "ENGLISH", "dayCap": 8, "nightCap": 8, "status": "License issued (IL)", "lat": 41.891755, "lon": -87.725438}, {"id": "420325", "name": "CHARLES, SUSANA", "street": "3511 W 71ST PL", "city": "CHICAGO", "zip": "60629", "phone": "7739252946", "facilityType": "DCH", "dayAge": "6W TO 12Y", "nightAge": "6W TO 12Y", "lang1": "ENGLISH", "dayCap": 7, "nightCap": 6, "status": "License issued (IL)", "lat": 41.763304, "lon": -87.710404}, {"id": "427135", "name": "ROSS, MARILYN", "street": "748 N LATROBE AVE", "city": "CHICAGO", "zip": "60644", "phone": "7734177545", "facilityType": "DCH", "dayAge": "6W TO 12Y", "nightAge": "6W TO 12Y", "lang1": "ENGLISH", "dayCap": 6, "nightCap": 6, "status": "License issued (IL)", "lat": 41.893937, "lon": -87.756866}, {"id": "432835", "name": "KIMBALL DAY CARE CENTER & KINDERGARTEN", "street": "1636 N KIMBALL AVE # 38", "city": "CHICAGO", "zip": "60647", "phone": "7732357200", "facilityType": "DCC", "dayAge": "6W TO 12Y", "nightAge": "0", "lang1": "ENGLISH", "dayCap": 126, "nightCap": 0, "status": "Pending renewal application (RN)", "lat": 41.911023, "lon": -87.711796}, {"id": "435179", "name": "LYNCH, BRIDGET", "street": "3030 W WALNUT ST FL 1", "city": "CHICAGO", "zip": "60612", "phone": "7732210541", "facilityType": "DCH", "dayAge": "6W TO 12Y", "nightAge": "6W TO 12Y", "lang1": "ENGLISH", "dayCap": 8, "nightCap": 8, "status": "Pending renewal application (RN)", "lat": 41.885499, "lon": -87.702114}, {"id": "435696", "name": "CRUMP, TYON", "street": "9831 S UNIVERSITY AVE", "city": "CHICAGO", "zip": "60628", "phone": "7733592392", "facilityType": "DCH", "dayAge": "6W TO 12Y", "nightAge": "6W TO 12Y", "lang1": "ENGLISH", "dayCap": 8, "nightCap": 8, "status": "License issued (IL)", "lat": 41.716187, "lon": -87.595728}, {"id": "443205", "name": "WEATHERSPOON, MARY A", "street": "5411 W CRYSTAL ST", "city": "CHICAGO", "zip": "60651", "phone": "7736717176", "facilityType": "DCH", "dayAge": "6W TO 12Y", "nightAge": "6W TO 12Y", "lang1": "ENGLISH", "dayCap": 8, "nightCap": 8, "status": "License issued (IL)", "lat": 41.903038, "lon": -87.761348}, {"id": "444848", "name": "CHEW, IRMA D", "street": "4455 N LA CROSSE AVE", "city": "CHICAGO", "zip": "60630", "phone": "7739303860", "facilityType": "GDC", "dayAge": "6W TO 12Y", "nightAge": "0", "lang1": "ENGLISH", "dayCap": 11, "nightCap": 0, "status": "License issued (IL)", "lat": 41.961828, "lon": -87.748714}, {"id": "450988", "name": "AGRELO, CARMENZA", "street": "2717 N SAINT LOUIS AVE", "city": "CHICAGO", "zip": "60647", "phone": "7739189182", "facilityType": "GDC", "dayAge": "6W TO 12Y", "nightAge": "6W TO 12Y", "lang1": "ENGLISH", "dayCap": 12, "nightCap": 10, "status": "License issued (IL)", "lat": 41.930575, "lon": -87.714637}, {"id": "451496", "name": "ROSARIO, LYBETH", "street": "2819 N LOWELL AVE", "city": "CHICAGO", "zip": "60641", "phone": "7734259164", "facilityType": "DCH", "dayAge": "6W TO 12Y", "nightAge": "0", "lang1": "ENGLISH", "dayCap": 8, "nightCap": 0, "status": "Pending renewal application (RN)", "lat": 41.932427, "lon": -87.735518}, {"id": "453559", "name": "LICARDIE, MARLING A", "street": "3901 W 60TH ST", "city": "CHICAGO", "zip": "60629", "phone": "7739878047", "facilityType": "GDC", "dayAge": "6W TO 12Y", "nightAge": "6W TO 12Y", "lang1": "ENGLISH", "dayCap": 10, "nightCap": 10, "status": "License issued (IL)", "lat": 41.784091, "lon": -87.720538}, {"id": "454526", "name": "RODRIGUEZ, VICTORIA", "street": "3104 N NATCHEZ AVE", "city": "CHICAGO", "zip": "60634", "phone": "7735121069", "facilityType": "GDC", "dayAge": "6W TO 12Y", "nightAge": "6W TO 12Y", "lang1": "ENGLISH", "dayCap": 12, "nightCap": 12, "status": "License issued (IL)", "lat": 41.936563, "lon": -87.788396}, {"id": "455491", "name": "LOPEZ, YOLANDA", "street": "8541 S KARLOV AVE", "city": "CHICAGO", "zip": "60652", "phone": "7734035526", "facilityType": "DCH", "dayAge": "6W TO 12Y", "nightAge": "0", "lang1": "ENGLISH", "dayCap": 8, "nightCap": 0, "status": "License issued (IL)", "lat": 41.737718, "lon": -87.723884}, {"id": "457087", "name": "CONCORDIA PLACE", "street": "3300 N WHIPPLE ST", "city": "CHICAGO", "zip": "60618", "phone": "7734631600", "facilityType": "DCC", "dayAge": "6W TO 12Y", "nightAge": "0", "lang1": "ENGLISH", "dayCap": 233, "nightCap": 0, "status": "License issued (IL)", "lat": 41.94111, "lon": -87.704078}, {"id": "457208", "name": "SOTO, TERESA", "street": "2628 W 23RD ST", "city": "CHICAGO", "zip": "60608", "phone": "3124793827", "facilityType": "DCH", "dayAge": "6W TO 12Y", "nightAge": "0", "lang1": "ENGLISH", "dayCap": 8, "nightCap": 0, "status": "License issued (IL)", "lat": 41.850193, "lon": -87.691224}, {"id": "441464", "name": "ROBINSON-PIRTLE, NICOLE Y", "street": "9348 S EBERHART AVE", "city": "CHICAGO", "zip": "60619", "phone": "7732093255", "facilityType": "DCH", "dayAge": "6W TO 12Y", "nightAge": "6W TO 12Y", "lang1": "ENGLISH", "dayCap": 8, "nightCap": 7, "status": "License issued (IL)", "lat": 41.724688, "lon": -87.611872}, {"id": "442582", "name": "WILLIAMS, RUBY L", "street": "5419 W CORTEZ ST", "city": "CHICAGO", "zip": "60651", "phone": "7739215042", "facilityType": "DCH", "dayAge": "6W TO 12Y", "nightAge": "6W TO 12Y", "lang1": "ENGLISH", "dayCap": 8, "nightCap": 8, "status": "License issued (IL)", "lat": 41.89939, "lon": -87.761384}, {"id": "442635", "name": "GLASSCOE, NANCY", "street": "7134 S HONORE ST", "city": "CHICAGO", "zip": "60636", "phone": "7734365763", "facilityType": "DCH", "dayAge": "6W TO 12Y", "nightAge": "6W TO 12Y", "lang1": "ENGLISH", "dayCap": 8, "nightCap": 8, "status": "License issued (IL)", "lat": 41.7639, "lon": -87.669935}, {"id": "371446", "name": "CULBERTSON, MATTIE M", "street": "1800 N LOTUS  1ST", "city": "CHICAGO", "zip": "60639", "phone": "7736223808", "facilityType": "DCH", "dayAge": "6W TO 12Y", "nightAge": "6W TO 12Y", "lang1": "ENGLISH", "dayCap": 8, "nightCap": 8, "status": "License issued (IL)", "lat": 41.913129, "lon": -87.761989}, {"id": "371706", "name": "POWER DAYCARE CENTER", "street": "725 W 123RD ST", "city": "CHICAGO", "zip": "60628", "phone": "7735685794", "facilityType": "DCC", "dayAge": "6W TO 12Y", "nightAge": "0", "lang1": "ENGLISH", "dayCap": 60, "nightCap": 0, "status": "Pending renewal application (RN)", "lat": 41.670493, "lon": -87.640324}, {"id": "371716", "name": "DORSEY, WILLILETT", "street": "4303 W CORTEZ ST", "city": "CHICAGO", "zip": "60651", "phone": "7733846051", "facilityType": "DCH", "dayAge": "6W TO 12Y", "nightAge": "6W TO 12Y", "lang1": "ENGLISH", "dayCap": 7, "nightCap": 5, "status": "License issued (IL)", "lat": 41.899747, "lon": -87.73397}, {"id": "372675", "name": "LEWIS-THOMAS, SHELIA M", "street": "3949 W OHIO ST", "city": "CHICAGO", "zip": "60624", "phone": "7736354801", "facilityType": "DCH", "dayAge": "6W TO 12Y", "nightAge": "6W TO 12Y", "lang1": "ENGLISH", "dayCap": 8, "nightCap": 8, "status": "License issued (IL)", "lat": 41.891641, "lon": -87.725663}, {"id": "373167", "name": "WALKER, SONJA D", "street": "1853 N NORDICA AVE", "city": "CHICAGO", "zip": "60707", "phone": "7736823903", "facilityType": "DCH", "dayAge": "6W TO 12Y", "nightAge": "6W TO 12Y", "lang1": "ENGLISH", "dayCap": 8, "nightCap": 8, "status": "License issued (IL)", "lat": 41.913545, "lon": -87.80218}, {"id": "379429", "name": "GREENFIELD, DONNA M", "street": "10329 S BENSLEY AVE", "city": "CHICAGO", "zip": "60617", "phone": "7733745150", "facilityType": "DCH", "dayAge": "6W TO 12Y", "nightAge": "6W TO 12Y", "lang1": "ENGLISH", "dayCap": 8, "nightCap": 8, "status": "Pending renewal application (RN)", "lat": 41.707608, "lon": -87.563219}, {"id": "379757", "name": "FLAGG, CLARA D", "street": "1722 N AUSTIN AVE BSMT", "city": "CHICAGO", "zip": "60639", "phone": "7738896536", "facilityType": "DCH", "dayAge": "6W TO 12Y", "nightAge": "6W TO 12Y", "lang1": "ENGLISH", "dayCap": 8, "nightCap": 8, "status": "Pending renewal application (RN)", "lat": 41.911522, "lon": -87.775373}, {"id": "379811", "name": "WRIGHT EARLY CARE & LEARNING CENTER", "street": "532 W 95TH ST", "city": "CHICAGO", "zip": "60628", "phone": "7739661513", "facilityType": "DCC", "dayAge": "6W TO 12Y", "nightAge": "0", "lang1": "ENGLISH", "dayCap": 163, "nightCap": 0, "status": "Pending renewal application (RN)", "lat": 41.721628, "lon": -87.637347}, {"id": "386498", "name": "HAMPTON, STEPHANIE A", "street": "8641 S BISHOP ST", "city": "CHICAGO", "zip": "60620", "phone": "7732981651", "facilityType": "DCH", "dayAge": "0  TO 12Y", "nightAge": "0  TO 12Y", "lang1": "ENGLISH", "dayCap": 8, "nightCap": 8, "status": "Pending renewal application (RN)", "lat": 41.737117, "lon": -87.659373}, {"id": "388622", "name": "WORTHAM, SUSIE M", "street": "2715 W 15TH PL", "city": "CHICAGO", "zip": "60608", "phone": "7735424376", "facilityType": "DCH", "dayAge": "6W TO 12Y", "nightAge": "6W TO 12Y", "lang1": "ENGLISH", "dayCap": 8, "nightCap": 0, "status": "Pending renewal application (RN)", "lat": 41.860102, "lon": -87.694016}, {"id": "389097", "name": "MITCHELL, JOKATHY", "street": "5245 W VAN BUREN ST FL 2", "city": "CHICAGO", "zip": "60644", "phone": "7738875104", "facilityType": "DCH", "dayAge": "6W TO 12Y", "nightAge": "6W TO 12Y", "lang1": "ENGLISH", "dayCap": 8, "nightCap": 8, "status": "Pending renewal application (RN)", "lat": 41.874773, "lon": -87.75638}, {"id": "393355", "name": "DAVIS, ANNETTE", "street": "4416 W WEST END AVE FL 1", "city": "CHICAGO", "zip": "60624", "phone": "7735581409", "facilityType": "DCH", "dayAge": "6W TO 12Y", "nightAge": "6W TO 12Y", "lang1": "ENGLISH", "dayCap": 8, "nightCap": 8, "status": "Pending renewal application (RN)", "lat": 41.883295, "lon": -87.736313},